Unnamed: 0,district,address,info,date,full name,latitude,longitude,translated
0,新宿区,東京都新宿区新宿三丁目22-7指田ビル地下1階,死体発見,平成24年11月5日,東京都 新宿区 新宿 三丁目 22番 7号,35.69326400756836,139.70130920410156,시체 발견
1,新宿区,東京都新宿区西新宿一丁目3-9,飛び降り自殺,令和4年,東京都 新宿区 西新宿 一丁目 3番 9号,35.69321823120117,139.6981658935547,뛰어내리 자살
2,新宿区,東京都新宿区歌舞伎町一丁目27-5 中台ビル,2階サウナロイヤル 死体発見,平成20年1月5日,東京都 新宿区 歌舞伎町 一丁目 27番 5号,35.69544982910156,139.70062255859375,2층 사우나 로얄 시체 발견
3,新宿区,東京都新宿区歌舞伎町一丁目20-2アパホテル新宿歌舞伎町タワー↓,飛び降り自殺,令和3年5月11日,東京都 新宿区 歌舞伎町 一丁目 20番 2号,35.69565200805664,139.70140075683594,뛰어내리 자살
4,新宿区,東京都新宿区西新宿七丁目5-9プロスペクト・アクス・ザ・タワー新宿2008,首吊り自殺,平成27年9月26日,東京都 新宿区 西新宿 七丁目 5番 9号,35.69681167602539,139.6980438232422,목살 자살
5,新宿区,東京都新宿区西新宿七丁目5-25,"20階
心理的瑕疵あり",不明,東京都 新宿区 西新宿 七丁目 5番 25号,35.697593688964844,139.69883728027344,20층 심리적 하자 있음.
6,新宿区,東京都新宿区歌舞伎町二丁目35-6,コインロッカー内に乳児の腐乱死体。,平成30年6月12日,東京都 新宿区 歌舞伎町 二丁目 35番 6号,35.696502685546875,139.7024688720703,코인 보관함에 유아의 부패사체.
7,新宿区,東京都新宿区歌舞伎町二丁目8-2,902号室で自殺あり。,2020年7月初旬,東京都 新宿区 歌舞伎町 二丁目 8番 2号,35.69490051269531,139.7058868408203,902호실에서 자살.
8,新宿区,東京都新宿区新宿五丁目16-10,伊勢丹テナント関係者の首吊り自殺,2008年頃,東京都 新宿区 新宿 五丁目 16番 10号,35.69314956665039,139.70635986328125,이세탄 인스트래빗 관계자의 목살 자살
9,新宿区,東京都新宿区新宿五丁目18-20 ビジネスホテルミラベル,309号室 首吊り自殺,平成20年12月4日,東京都 新宿区 新宿 五丁目 18番 20号,35.693931579589844,139.70648193359375,309호실목살 자살
10,新宿区,東京都新宿区歌舞伎町二丁目2-20 ライオンズマンション歌舞伎町A棟,"114号室
宅地建物取引業47条1項に基づく告知事項有り",令和4年5月21日,東京都 新宿区 歌舞伎町 二丁目 2番 20号,35.69565200805664,139.70684814453125,114호실 주택물거래중개 47호1항에 따른 고지사항 있음
11,新宿区,東京都新宿区歌舞伎町二丁目10-7ダイヤモンドビル,螺旋階段から転落死,平成22年,東京都 新宿区 歌舞伎町 二丁目 10番 7号,35.69548797607422,139.70452880859375,나선계단에서 굴락사
12,新宿区,東京都新宿区歌舞伎町一丁目11-5扇園ビル1階,刺殺,平成20年4月8日,東京都 新宿区 歌舞伎町 一丁目 11番 5号,35.69501876831055,139.70269775390625,사시미
13,新宿区,東京都新宿区歌舞伎町二丁目2-21,撲殺,平成24年5月17日,東京都 新宿区 歌舞伎町 二丁目 2番 21号,35.695518493652344,139.70681762695312,뺑소
14,新宿区,東京都新宿区歌舞伎町二丁目18-5,飛び降り自殺,平成26年12月,東京都 新宿区 歌舞伎町 二丁目 18番 5号,35.6972770690918,139.70492553710938,뛰어내리 자살
15,新宿区,東京都新宿区歌舞伎町二丁目30-5,遺体発見,平成30年12月25日,東京都 新宿区 歌舞伎町 二丁目 30番 5号,35.69712448120117,139.70310974121094,시신 발견
16,新宿区,東京都新宿区歌舞伎町二丁目3-23新宿セントラルビル3F,刺殺,平成19年4月5日,東京都 新宿区 歌舞伎町 二丁目 3番 23号,35.69685745239258,139.70709228515625,사시미
17,新宿区,東京都新宿区歌舞伎町二丁目10-6,B1・キャバ嬢自殺,2006〜2012の間,東京都 新宿区 歌舞伎町 二丁目 10番 6号,35.695350646972656,139.70449829101562,"B1,바카다 자살"
18,新宿区,東京都新宿区新宿五丁目18-11,5階から飛び降り,2015年ころ,東京都 新宿区 新宿 五丁目 18番 11号,35.69476318359375,139.70620727539062,5층에서 뛰어내리
19,新宿区,東京都新宿区歌舞伎町二丁目8-6,ホテルD-WAVE308号室にて男性が不審死,令和2年1月30日,東京都 新宿区 歌舞伎町 二丁目 8番 6号,35.69516372680664,139.70559692382812,호텔 D-WAVE 308호실에서 남성이 수상사.
20,新宿区,東京都新宿区歌舞伎町二丁目22-1ホテルシェーナ504,死体発見,平成22年6月24日,東京都 新宿区 歌舞伎町 二丁目 22番 1号,35.695838928222656,139.70436096191406,시체 발견
21,新宿区,東京都新宿区歌舞伎町二丁目33-11ホテル大松,死体発見,平成24年4月3日,東京都 新宿区 歌舞伎町 二丁目 33番 11号,35.697288513183594,139.7030792236328,시체 발견
22,新宿区,東京都新宿区歌舞伎町二丁目14-8 メトロプラザ4F,傷害致死,令和元年9月21日,東京都 新宿区 歌舞伎町 二丁目 14番 8号,35.696929931640625,139.7049102783203,상해치사
23,新宿区,東京都新宿区歌舞伎町二丁目21-5,8階から飛び降り自殺,平成30年10月26日,東京都 新宿区 歌舞伎町 二丁目 21番 5号,35.696327209472656,139.7037811279297,8층에서 뛰어내리고 자살
24,新宿区,東京都新宿区歌舞伎町二丁目10-12,ホテルパシャ702号室にて20～30代の男性が死亡しているのを発見。(官報より),令和3年7月13日,東京都 新宿区 歌舞伎町 二丁目 10番 12号,35.6956901550293,139.7050018310547,호텔파샤 722호실에서 70대 남성이 사망하는 것을 발견. (관보
25,新宿区,東京都新宿区歌舞伎町二丁目2-6,2012.飛降り,平成24年10月1日,東京都 新宿区 歌舞伎町 二丁目 2番 6号,35.6959228515625,139.70640563964844,2012. 비옷
26,新宿区,東京都新宿区新宿六丁目27-19金光コーポ新宿805,絞殺,平成19年5月31日,東京都 新宿区 新宿 六丁目 27番 19号,35.69521713256836,139.70745849609375,컷살
27,新宿区,東京都新宿区歌舞伎町二丁目2-21ライオンズマンション歌舞伎町,刺殺,令和5年5月29日,東京都 新宿区 歌舞伎町 二丁目 2番 21号,35.695518493652344,139.70681762695312,사시미
28,新宿区,東京都新宿区新宿五丁目18-10,飛び降り自殺,令和4年12月12日,東京都 新宿区 新宿 五丁目 18番 10号,35.69475555419922,139.70602416992188,뛰어내리 자살
29,新宿区,東京都新宿区歌舞伎町二丁目29-2,転落死の可能性有。,分かりません。,東京都 新宿区 歌舞伎町 二丁目 29番 2号,35.69664001464844,139.70343017578125,전 낙사 가능성이 있다.
30,新宿区,東京都新宿区歌舞伎町二丁目21-2ソフィア2 8階↓,転落死,平成20年11月28日,東京都 新宿区 歌舞伎町 二丁目 21番 2号,35.69624710083008,139.70428466796875,회전사
31,新宿区,東京都新宿区歌舞伎町一丁目12-3 5階,射殺,平成31年1月21日,東京都 新宿区 歌舞伎町 一丁目 12番 3号,35.6948356628418,139.70228576660156,사살
32,新宿区,東京都新宿区歌舞伎町二丁目35-9コインロッカー,死体発見,平成30年5月29日,東京都 新宿区 歌舞伎町 二丁目 35番 9号,35.69669342041016,139.70274353027344,시체 발견
33,新宿区,東京都新宿区歌舞伎町二丁目18,不動産業者より告知物件との報告有,2022年5月頃,東京都 新宿区 歌舞伎町 二丁目 18番,35.69724655151367,139.7051544189453,부동산 업체로부터 공지사항이라는 보고유
34,新宿区,東京都新宿区歌舞伎町二丁目18-5 プラ－ズタワ－東新宿 ［14階/1410号室］，16階,告知事項あり,不明,東京都 新宿区 歌舞伎町 二丁目 18番 5号,35.6972770690918,139.70492553710938,공고사항
35,新宿区,東京都新宿区歌舞伎町二丁目5パークネット歌舞伎町第3駐車場,死体遺棄,平成29年2月15日,東京都 新宿区 歌舞伎町 二丁目 5番,35.69697570800781,139.70628356933594,시체유채
36,新宿区,東京都新宿区歌舞伎町二丁目28-8ホテルアランド,死体発見,平成29年12月5日,東京都 新宿区 歌舞伎町 二丁目 28番 8号,35.696571350097656,139.70298767089844,시체 발견
37,新宿区,東京都新宿区歌舞伎町二丁目2-6 ライオンズマンション歌舞伎町第2-701,転落死,平成25年2月10日,東京都 新宿区 歌舞伎町 二丁目 2番 6号,35.6959228515625,139.70640563964844,회전사
38,新宿区,東京都新宿区歌舞伎町二丁目9−１５,401号、病死,26年5月,東京都 新宿区 歌舞伎町 二丁目 9番 15号,35.69561767578125,139.7056427001953,"401호, 병살"
39,新宿区,東京都新宿区歌舞伎町二丁目22-10,自殺,平成30年10月2日,東京都 新宿区 歌舞伎町 二丁目 22番 10号,35.69622039794922,139.70408630371094,자살
40,新宿区,東京都新宿区歌舞伎町二丁目8,"ホテルから飛び降り自殺
最上ビルとホテルの間で死亡。",平成25年1月15日,東京都 新宿区 歌舞伎町 二丁目 8番,35.695068359375,139.7058563232422,호텔에서 뛰어내리며 자살 최고 빌딩과 호텔 사이에 사망.
41,新宿区,東京都新宿区歌舞伎町二丁目11-15ホテルイマージュ506,硫化水素自殺,平成20年5月19日,東京都 新宿区 歌舞伎町 二丁目 11番 15号,35.69586563110352,139.7051239013672,유황수소 자살
42,新宿区,東京都新宿区歌舞伎町二丁目20-17朝日新宿館5F,湊□クリニック手術ミスによる患者死亡（現在は閉院）,2012年某月,東京都 新宿区 歌舞伎町 二丁目 20番 17号,35.69733047485352,139.7045135498047,미나토 쿄토 클리닉 수술 실수로 인한 환자 사망! 현재는 폐원!
43,新宿区,東京都新宿区歌舞伎町二丁目40-1レディース510,死体発見,平成23年3月1日,東京都 新宿区 歌舞伎町 二丁目 40番 1号,35.69716262817383,139.702392578125,시체 발견
44,新宿区,東京都新宿区歌舞伎町二丁目27-4,前のホテルだった頃、女性の遺体発見,7年前ぐらい？,東京都 新宿区 歌舞伎町 二丁目 27番 4号,35.695762634277344,139.702880859375,전 호텔이었을 때 여성 시신 발견
45,新宿区,東京都新宿区歌舞伎町二丁目28-11ホテルまつき1階-2階間踊り場,火災による死亡,平成28年1月7日,東京都 新宿区 歌舞伎町 二丁目 28番 11号,35.696590423583984,139.70343017578125,화재로 인한 사망
46,新宿区,東京都新宿区歌舞伎町二丁目1-11,無理心中 ．,令和3年4月16日,東京都 新宿区 歌舞伎町 二丁目 1番 11号,35.69517135620117,139.7067413330078,무리한 것 같아~
47,新宿区,東京都新宿区歌舞伎町二丁目9-17,車両事故死,平成29年8月19日,東京都 新宿区 歌舞伎町 二丁目 9番 17号,35.69535446166992,139.70558166503906,차량사고
48,新宿区,東京都新宿区新宿六丁目27-20 ダイヤモンドレジデンス新宿,1階 101号室 2018年11月10日 告知事項有り,平成30年11月10日,東京都 新宿区 新宿 六丁目 27番 20号,35.69534683227539,139.7074737548828,1층 101호실 2018년 11월 10일 공고사항
49,台東区,東京都台東区東上野三丁目15-12,告知事项あり,2019年,東京都 台東区 東上野 三丁目 15番 12号,35.71076583862305,139.77871704101562,공고도 있네요~
50,台東区,東京都台東区東上野二丁目21-11上野ターミナルホテル2階,絞殺,平成21年6月24日,東京都 台東区 東上野 二丁目 21番 11号,35.71021270751953,139.77845764160156,컷살
51,台東区,東京都台東区上野六丁目8-1 カプセルサウナセンチュリー,2階休息コーナー 脳内出血による死亡,平成20年12月27日,東京都 台東区 上野 六丁目 8番 1号,35.70896530151367,139.77569580078125,2층 휴식코너 뇌내출혈로 사망
52,台東区,東京都台東区東上野一丁目14タイムズ東上野第27,死体発見,平成24年12月4日,東京都 台東区 東上野 一丁目 14番,35.70797348022461,139.7768096923828,시체 발견
53,台東区,東京都台東区上野六丁目2-11,自殺,平成29年12月27日,東京都 台東区 上野 六丁目 2番 11号,35.7084846496582,139.77572631835938,자살
54,台東区,東京都台東区台東四丁目29-15 ４０２号室,脳梗塞による孤高死。単身赴任中に死去,平成26年6月23日,東京都 台東区 台東 四丁目 29番 15号,35.707157135009766,139.7791748046875,뇌경색으로 인한 고공 사망. 단신 부임 중에 사망
55,台東区,東京都台東区東上野二丁目6-2パーク・キューブ上野705,殺人,平成21年2月25日,東京都 台東区 東上野 二丁目 6番 2号,35.70874786376953,139.7807159423828,살인사
56,台東区,東京都台東区元浅草二丁目2-12,302の住民が死亡,2020年10月,東京都 台東区 元浅草 二丁目 2番 12号,35.7100944519043,139.78428649902344,282명의 주민이 사망.
57,台東区,東京都台東区東上野二丁目25-12,飛び降り,平成31年2月12日,東京都 台東区 東上野 二丁目 25番 12号,35.70961380004883,139.78152465820312,비옷
58,墨田区,東京都台東区元浅草二丁目7-8ツクバホテル713,硫化水素自殺,平成21年5月10日,東京都 台東区 元浅草 二丁目 7番 8号,35.71049499511719,139.7828826904297,유황수소 자살
59,墨田区,東京都台東区花川戸一丁目3-6 花川戸ビル,首吊り自殺,平成19年1月27日,東京都 台東区 花川戸 一丁目 3番 6号,35.71213150024414,139.79905700683594,목살 자살
60,墨田区,東京都墨田区吾妻橋一丁目23-30 URリバーピア吾妻橋ライフタワー1907↓,飛び降りて死亡,平成30年10月4日,東京都 墨田区 吾妻橋 一丁目 23番 30号,35.70941162109375,139.8013153076172,뛰어내려서 사망
61,墨田区,東京都墨田区吾妻橋二丁目5-1,詳細の日付は不明だが5階の部屋で住人が孤高死してる,令和元年10月1日,東京都 墨田区 吾妻橋 二丁目 5番 1号,35.709041595458984,139.80230712890625,자세한 날짜는 알 수 없지만 5층 방에서 주민이 고독사하고 있다.
62,豊島区,東京都豊島区南池袋二丁目30-16,心理的瑕疵物件,令和3年11月,東京都 豊島区 南池袋 二丁目 30番 16号,35.7269401550293,139.7161865234375,심리적 하자물건
63,豊島区,東京都豊島区南池袋二丁目9-17,"11階あたりの部屋から飛び降り自殺
1階の裏口に落下",2013年1月ごろ,東京都 豊島区 南池袋 二丁目 9番 17号,35.72530746459961,139.7146759033203,11층쯤 방에서 뛰어내리고 자살 1층 뒷문으로 추락
64,豊島区,東京都豊島区南池袋二丁目9-17ニッシンパレステージ池袋804,男性の変死体発見,2018年６月,東京都 豊島区 南池袋 二丁目 9番 17号,35.72530746459961,139.7146759033203,남성의 변사체 발견
65,豊島区,東京都豊島区南池袋二丁目8-18,飛び降り自殺,平成27年8月30日,東京都 豊島区 南池袋 二丁目 8番 18号,35.72500228881836,139.71517944335938,뛰어내리 자살
66,豊島区,東京都豊島区南池袋二丁目8-6,心理的瑕疵物件あり8階,不明,東京都 豊島区 南池袋 二丁目 8番 6号,35.72523880004883,139.71484375,심리적 하자물건이 8층
67,豊島区,東京都豊島区南池袋二丁目43-21,三階の一室にて自殺,2012年前後,東京都 豊島区 南池袋 二丁目 43番 21号,35.7259407043457,139.7183074951172,3층 한실에서 자살
68,豊島区,東京都豊島区東池袋四丁目5-1エアライズタワー↓,飛び降り自殺,令和4年6月5日,東京都 豊島区 東池袋 四丁目 5番 1号,35.7261848449707,139.71900939941406,뛰어내리 자살
69,豊島区,東京都豊島区東池袋四丁目21-1,飛び降り,平成29年12月15日,東京都 豊島区 東池袋 四丁目 21番 1号,35.72700119018555,139.71969604492188,비옷
70,豊島区,東京都豊島区東池袋四丁目5-1エアライズタワー26階,"早朝、50代の女性が飼い犬を道連れに
26階の自室のベランダから飛び降り自殺。
日之出町公園の向かい側辺り、
ライズシティ池袋1階の店舗の前に、犬と共に落下し死亡。
夫と二人暮らしで、夫婦仲が悪かったのか、
夫の方は、すぐに同じ犬種の犬を飼い、
何喰わぬ顔で毎朝散歩させているらしい。",令和3年9月11日,東京都 豊島区 東池袋 四丁目 5番 1号,35.7261848449707,139.71900939941406,"이른 아침, 50대 여성이 개를 데리고 26층 자취방에서 뛰어내렸다가 26"
71,豊島区,東京都豊島区東池袋四丁目32-15,女性の自殺あり,2005年頃？,東京都 豊島区 東池袋 四丁目 32番 15号,35.726341247558594,139.7220458984375,여성의 자살
72,豊島区,東京都豊島区東池袋四丁目27-10,2階 男性 病死,令和2年10月15日,東京都 豊島区 東池袋 四丁目 27番 10号,35.72823715209961,139.71902465820312,2층 남성병살
73,豊島区,東京都豊島区東池袋四丁目27-5ライオンズプラザ池袋509,自殺,平成23年,東京都 豊島区 東池袋 四丁目 27番 5号,35.7277717590332,139.71913146972656,자살
74,豊島区,東京都豊島区東池袋四丁目18-15フラワーハイツ2階,火災による死亡,平成20年12月20日,東京都 豊島区 東池袋 四丁目 18番 15号,35.72653579711914,139.7207489013672,화재로 인한 사망
75,渋谷区,東京都豊島区東池袋四丁目3-3東京計画ビル↓,飛び降り自殺,平成25年7月15日,東京都 豊島区 東池袋 四丁目 3番 3号,35.72575378417969,139.71961975097656,뛰어내리 자살
76,渋谷区,東京都渋谷区神南二丁目2,過労死,不明,東京都 渋谷区 神南 二丁目 2番,35.66600799560547,139.69644165039062,과로사
77,渋谷区,東京都渋谷区神山町9-17,ミイラ,平成18年4月15日,東京都 渋谷区 神山町 9番 17号,35.663902282714844,139.69412231445312,미라
78,渋谷区,東京都渋谷区神南二丁目2-31,過労死,2014,東京都 渋谷区 神南 二丁目 2番 31号,35.664329528808594,139.69639587402344,과로사
79,渋谷区,東京都渋谷区神山町1-12,死体損壊・死体遺棄,平成18年12月28日,東京都 渋谷区 神山町 1番 12号,35.66594696044922,139.69293212890625,사체손상・사체유기
80,渋谷区,東京都渋谷区神山町2-3 メヌエットオマタ101,病死,2016年4月頃,東京都 渋谷区 神山町 2番 3号,35.66585922241211,139.69281005859375,병살
81,渋谷区,東京都渋谷区神山町6-9,"パークフラッツ渋谷神山町
3階 告知事項有り",---,東京都 渋谷区 神山町 6番 9号,35.66490936279297,139.6936798095703,파크 플라츠 시부야 고마야마치 3층 공지사항 있어.
82,渋谷区,東京都渋谷区神山町10-2パークハビオ渋谷神山町602,自殺,平成24年,東京都 渋谷区 神山町 10番 2号,35.66382598876953,139.69517517089844,자살
83,渋谷区,東京都渋谷区神南二丁目2-1NHK放送センター8Fトイレ,首吊り自殺,平成22年8月11日,東京都 渋谷区 神南 二丁目 2番 1号,35.66709899902344,139.69735717773438,목살 자살
84,渋谷区,東京都渋谷区神南一丁目4-17,死体発見,平成22年2月24日,東京都 渋谷区 神南 一丁目 4番 17号,35.665557861328125,139.699951171875,시체 발견
85,港区,東京都渋谷区神南一丁目8-18クオリア神南フラッツ建設現場11階↓,転落死,平成19年8月5日,東京都 渋谷区 神南 一丁目 8番 18号,35.664608001708984,139.70053100585938,회전사
86,港区,愛知県名古屋市港区港楽一丁目1-10 市営港楽荘1棟 201,事故住宅,不明,愛知県 名古屋市 港区 港楽 一丁目 1番 10号,35.10519027709961,136.88845825195312,사고주택
87,港区,愛知県名古屋市港区港楽一丁目1-10 市営港楽荘1棟,2名の死体発見,令和4年11月3日,愛知県 名古屋市 港区 港楽 一丁目 1番 10号,35.10519027709961,136.88845825195312,2명의 시체 발견
88,世田谷区,東京都世田谷区世田谷三丁目23-20,屋上より女性が飛び降り自殺,平成29年1月18日,東京都 世田谷区 世田谷 三丁目 23番 20号,35.6454963684082,139.65066528320312,옥상에서 여자가 뛰어내리고 자살
89,世田谷区,東京都世田谷区世田谷三丁目11-8,１２階から若いカップル飛び降り（外部）,令和4年7月9日,東京都 世田谷区 世田谷 三丁目 11番 8号,35.644020080566406,139.6473388671875,2층에서 젊은 커플이 뛰어내리는... 외부?
90,世田谷区,東京都世田谷区世田谷四丁目17-3,男性が自殺,15年ほど前,東京都 世田谷区 世田谷 四丁目 17番 3号,35.645267486572266,139.6511688232422,남자가 자살
91,大田区,東京都世田谷区若林四丁目21-11,"母屋隣のアパート（２階部分）で孤高死
強烈な臭いでした",令和３年７月頃,東京都 世田谷区 若林 四丁目 21番 11号,35.64447784423828,139.65492248535156,마루 옆 아파트(층) 에서 고공사격 냄새였어요.
92,大田区,東京都大田区西蒲田八丁目20-11,死体発見,平成27年,東京都 大田区 西蒲田 八丁目 20番 11号,35.55966567993164,139.71388244628906,시체 발견
93,大田区,東京都大田区蒲田五丁目48-10 ハイライフ蒲田,"10階 角部屋
告知事項あり",令和4年10月16日,東京都 大田区 蒲田 五丁目 48番 10号,35.55946731567383,139.71681213378906,10층 각 방 고지사항 있음.
94,大田区,東京都大田区蒲田五丁目50-2 スカイコート蒲田ガーデン,"7階 北向き1K（洋室6帖、K2帖） 専有面積21.00㎡
心理的瑕疵有",令和3年11月26日,東京都 大田区 蒲田 五丁目 50番 2号,35.55934143066406,139.71824645996094,"7층 북쪽 방향 1K-룸 6칸, 2층 1K-룸 21:0"
95,中野区,東京都中野区中野五丁目37-15 201,老人の孤独死,令和4年3月,東京都 中野区 中野 五丁目 37番 15号,35.70797348022461,139.66748046875,노인의 고독사
96,中野区,東京都中野区中野五丁目51-12 ザ・パークハウス中野タワー,共用部より飛び降り自殺,2021年4月,東京都 中野区 中野 五丁目 51番 12号,35.709598541259766,139.66616821289062,공용부대에서 뛰어내리고 자살
97,中野区,東京都中野区中野五丁目56-15,カウンターバー 店内で経営者首つり自殺,2014,東京都 中野区 中野 五丁目 56番 15号,35.70829391479492,139.66648864746094,카운터 바에서 경영자 수당 자살
98,中野区,東京都中野区中野五丁目67-7 プラザ中野,屋上から飛び降り自殺,平成30年6月2日,東京都 中野区 中野 五丁目 67番 7号,35.708473205566406,139.665283203125,옥상에서 뛰어내리고 자살
99,中野区,東京都中野区中野五丁目68-5ドン・キホーテ中野駅前店地下1階,エレベータと壁に挟まれ死亡,平成23年11月5日,東京都 中野区 中野 五丁目 68番 5号,35.708980560302734,139.66514587402344,엘리베이터와 벽에 끼여 사망
100,中央区,福岡県福岡市中央区赤坂一丁目10-17しんくみ赤坂ビル5階↓,飛び降り自殺,平成27年11月17日,福岡県 福岡市 中央区 赤坂 一丁目 10番 17号,33.588897705078125,130.39036560058594,뛰어내리 자살
101,中央区,福岡県福岡市中央区大名二丁目2-8,901注意 制服の警官が何人か入っていった,2019年7月,福岡県 福岡市 中央区 大名 二丁目 2番 8号,33.587833404541016,130.39300537109375,901 주의 복장 경찰관이 몇 명 들어왔다.
102,中央区,福岡県福岡市中央区大名二丁目6-11 Fukuoka Growth Next 1階トイレ,刺殺,平成30年6月24日,福岡県 福岡市 中央区 大名 二丁目 6番 11号,33.58889389038086,130.39505004882812,사시미
103,北区,福岡県福岡市中央区大名一丁目14-13 ビジネスホテル「プラザホテルプルミエ」7階,同ホテル7階客室の浴室で、東京都に住む宿泊客の男性（20）が硫化水素による自殺。,平成20年7月30日,福岡県 福岡市 中央区 大名 一丁目 14番 13号,33.587242126464844,130.3956756591797,이 호텔 7층 객실 욕실에서 도쿄도에 사는 투숙객 남성 (20)가
104,北区,大阪府堺市北区長曽根町545-1,飛び降り自殺,平成23年5月5日,大阪府 堺市 北区 長曽根町 545番地,34.56355285644531,135.51417541503906,뛰어내리 자살
105,北区,大阪府堺市北区新金岡町5丁1-3病院内,看護士から虐待を受けた老人が死亡,平成21年9月15日,大阪府 堺市 北区 新金岡町 五丁 1番,34.565650939941406,135.515380859375,간호사로부터 학대를 받은 노인이 사망
106,葛飾区,大阪府堺市北区新金岡町5丁1-5,"アルティス新金岡
2000年に建築されたマンションですが、2000年〜2005年の間？に飛び降り自殺がありました。

飛び降り自殺",平成29年1月6日,大阪府 堺市 北区 新金岡町 五丁 1番,34.565650939941406,135.515380859375,알티스카 신카네카 2000년에 지어진 아파트인데 2000년~2005년 사이에 1층으로 뛰어
107,葛飾区,東京都葛飾区立石五丁目23-12,告知事項あり,2021/04/26,東京都 葛飾区 立石 五丁目 23番 12号,35.744564056396484,139.84701538085938,공고사항
108,葛飾区,東京都葛飾区立石五丁目9-11,刺殺,平成20年12月26日,東京都 葛飾区 立石 五丁目 9番 11号,35.7430419921875,139.8447723388672,사시미
109,葛飾区,東京都葛飾区立石五丁目5-24-504,40代男性首吊り,2014年12月,東京都 葛飾区 立石 五丁目 5番 24号,35.7430534362793,139.8445281982422,40대 남성 목살
110,葛飾区,東京都葛飾区立石五丁目4-17,告知事項有り,平成30年10月10日,東京都 葛飾区 立石 五丁目 4番 17号,35.74357986450195,139.84384155273438,공고사항 있음
111,葛飾区,東京都葛飾区立石五丁目19-2平成マンション 205,自殺,2015,東京都 葛飾区 立石 五丁目 19番 2号,35.74468231201172,139.84474182128906,자살
112,杉並区,東京都葛飾区白鳥一丁目4-3都営白鳥一丁目アパート3号棟402,溺死,平成27年4月9日,東京都 葛飾区 白鳥 一丁目 4番 3号,35.74692153930664,139.8419647216797,수육
113,杉並区,東京都杉並区阿佐谷南三丁目6-20第一赤松荘,独居の老人が孤高死,2016年頃,東京都 杉並区 阿佐谷 南三丁目 6番 20号,35.70124435424805,139.63320922851562,독거 노인이 고독사
114,杉並区,東京都杉並区成田東五丁目34-14 住友南阿佐ヶ谷シティハウス,"404号室 角部屋
告知事項有
2022年8月室内スケルトンリフォーム済",令和4年9月9日,東京都 杉並区 成田 東五丁目 34番 14号,35.70094680786133,139.6316375732422,440호실 각 방안내사항유니화이트 2022년 8월 실내스켈
115,杉並区,東京都杉並区阿佐谷南三丁目2-11 マナーテラス,"2階 201号室 角部屋 2018年12月21日 告知事項あり
2018年12月室内フルリフォーム システムキッチンや温水洗浄便座、お風呂など水回りの設備は新品です。",平成30年12月21日,東京都 杉並区 阿佐谷 南三丁目 2番 11号,35.7009391784668,139.63499450683594,2층 205호실 가방콕 2018년 12월 21일 공지사항 있음 2018년
116,杉並区,東京都杉並区成田東五丁目42-10 阿佐ケ谷陵雲閣マンション,10階 心理的瑕疵あり,不明,東京都 杉並区 成田 東五丁目 42番 10号,35.69935607910156,139.63491821289062,10층 심리적 하자 있음.
117,杉並区,東京都杉並区成田東四丁目35-18 メゾン中里,1階 心理的瑕疵あり,平成30年11月6日,東京都 杉並区 成田 東四丁目 35番 18号,35.69786834716797,139.63812255859375,1층 심리적 하자 있음.
118,杉並区,東京都杉並区阿佐谷南一丁目12-5,高層階から中庭に飛び降り自殺,2007年ごろ,東京都 杉並区 阿佐谷 南一丁目 12番 5号,35.69905090332031,139.6371307373047,고층층에서 중당으로 뛰어내리고 자살
119,杉並区,東京都杉並区阿佐谷南一丁目9-8 マンションアルファ,"3階 角部屋 東向きワンルーム（洋室6帖） 専有面積16㎡ 賃料5.4万円 管理費等2,000円
容認事項有",令和4年8月6日,東京都 杉並区 阿佐谷 南一丁目 9番 8号,35.698909759521484,139.6383056640625,3층 각 방 건너편 원룸(양로 6종/전월면적) 임대
120,杉並区,東京都杉並区阿佐谷南一丁目8-8 タウンコート阿佐ヶ谷,"406号室 角部屋
告知事項あり",令和4年6月14日,東京都 杉並区 阿佐谷 南一丁目 8番 8号,35.69850540161133,139.63925170898438,406호실 각 방안내사항
121,杉並区,東京都杉並区阿佐谷南一丁目14-6 3F,告知事項あり 詳細不明,２０１９年９月２７日,東京都 杉並区 阿佐谷 南一丁目 14番 6号,35.69947052001953,139.63677978515625,공고사항 및 상세불명
122,杉並区,東京都杉並区阿佐谷南一丁目20-22川染荘101,火災による死亡,平成24年3月22日,東京都 杉並区 阿佐谷 南一丁目 20番 22号,35.70021057128906,139.64010620117188,화재로 인한 사망
123,江東区,東京都杉並区阿佐谷南一丁目20-24,警察の立ち入りにて遺体発見,平成29年12月5日,東京都 杉並区 阿佐谷 南一丁目 20番 24号,35.70024490356445,139.6404266357422,경찰이 들어서자 시신 발견
124,江東区,東京都江東区東陽五丁目29,女性の飛び降り自殺,平成24年6月1日,東京都 江東区 東陽 五丁目 29番,35.67279815673828,139.8130645751953,여성의 비명 자살
125,江戸川区,東京都江東区東陽五丁目22-14,死体発見,平成30年8月2日,東京都 江東区 東陽 五丁目 22番 14号,35.67174530029297,139.81243896484375,시체 발견
126,江戸川区,東京都江戸川区中央二丁目9-1,孤高死,平成20年ごろ,東京都 江戸川区 中央 二丁目 9番 1号,35.705345153808594,139.87193298339844,고고사
127,江戸川区,東京都江戸川区中央一丁目13-16 102,女性が亡くなられていた,令和元年7月12日,東京都 江戸川区 中央 一丁目 13番 16号,35.70486831665039,139.86959838867188,여자가 돌아가셨다
128,文京区,東京都文京区本郷一丁目33-3,805室 女性飛び降り自殺。,平成26年10月16日,東京都 文京区 本郷 一丁目 33番 3号,35.70560073852539,139.75503540039062,805실 여성 추락 자살.
129,文京区,東京都文京区後楽一丁目3 東京ドームシティ,ジオポリス北側トンネル通路 ペルー人男性、病死,平成20年10月15日,東京都 文京区 後楽 一丁目 3番,35.705284118652344,139.751708984375,"지오파스티 북쪽 터널 통로 페루인 남성, 사망"
130,文京区,東京都文京区本郷一丁目33-2水道橋グランドホテル523,硫化水素自殺,平成22年3月26日,東京都 文京区 本郷 一丁目 33番 2号,35.70562744140625,139.7552032470703,유황수소 자살
131,荒川区,東京都文京区本郷一丁目24-4 レジディア文京本郷,"旧名称：アルティス本郷

906号室 角部屋
告知事項有",令和4年7月28日,東京都 文京区 本郷 一丁目 24番 4号,35.7053108215332,139.75538635253906,명칭: 아티스 본고향 936호실 각 방도 고지사항
132,板橋区,東京都荒川区荒川三丁目30-4,火災による死亡,平成21年12月24日,東京都 荒川区 荒川 三丁目 30番 4号,35.73441696166992,139.78187561035156,화재로 인한 사망
133,板橋区,東京都板橋区板橋三丁目9-14,"グラスコート板橋 部屋番号不明
心理的瑕疵物件",2010年以降,東京都 板橋区 板橋 三丁目 9番 14号,35.751686096191406,139.7110595703125,유리코트 이타바시야 방호실 번호불명적 하자물건
134,板橋区,東京都板橋区板橋三丁目8-12,"ジュエル板橋区役所前7階
心理的瑕疵物件",令和3年2月22日,東京都 板橋区 板橋 三丁目 8番 12号,35.751548767089844,139.7112274169922,쥬얼리 판교구청 앞 7층 심리적 손상물건
135,板橋区,東京都板橋区板橋三丁目9-13 野間ビル 4階/402,告知事項あり,2017年,東京都 板橋区 板橋 三丁目 9番 13号,35.75180435180664,139.71095275878906,공고사항
136,板橋区,東京都板橋区仲宿36-10,原因不明の事故,2011,東京都 板橋区 仲宿 36番 10号,35.75303268432617,139.71145629882812,원인불명의 사고
137,板橋区,東京都板橋区板橋三丁目11-3 グリーンパレス,"1階 角部屋 南向き1DK（洋室6帖、DK6.8帖） 専有面積23.8㎡
心理的瑕疵あり（同建物内の別室にて自殺及び自然死の瑕疵あり）",令和4年5月15日,東京都 板橋区 板橋 三丁目 11番 3号,35.75205612182617,139.71115112304688,"1층 각 방 중앙 남향 1D, 1D룸 6첩, DK6"
138,板橋区,東京都板橋区仲宿39-1 須田ビル402,心理的瑕疵物件,5年前,東京都 板橋区 仲宿 39番 1号,35.75241470336914,139.7113800048828,심리적 하자물건
139,板橋区,東京都板橋区仲宿43-8 ドミールジュネス 2階/203号室(南西角部屋),心理的瑕疵有,不明,東京都 板橋区 仲宿 43番 8号,35.753395080566406,139.70970153808594,심리적 하자유무
140,品川区,東京都板橋区仲宿58-6 第三トキワコーポ,"https://suumo.jp/chintai/tokyo/sc_itabashi/bc_100039936988/
第三トキワコーポ 2階 部屋番号は不明
告知事項が御座います",2015年,東京都 板橋区 仲宿 58番 6号,35.75379943847656,139.70867919921875,http://summo.jina/chaina/
141,品川区,東京都品川区二葉一丁目6-6,"青稜中学校三階から転落
その後死亡",2018年10月,東京都 品川区 二葉 一丁目 6番 6号,35.608890533447266,139.72775268554688,청경중학교 3층에서 추락 이후 사망
142,品川区,東京都品川区広町二丁目1-19 JR広町アパート4号棟,飛び降り自殺,平成19年4月11日,東京都 品川区 広町 二丁目 1番 19号,35.60796356201172,139.7317657470703,뛰어내리 자살
143,品川区,東京都品川区二葉１丁目１７-１８ メゾン・ド・パナシェ 209,首吊り自殺,24年1月,東京都 品川区 二葉 一丁目 17番 18号,35.607608795166016,139.72885131835938,목살 자살
144,品川区,東京都品川区二葉一丁目12-3,心理的瑕疵,平成30年10月1日,東京都 品川区 二葉 一丁目 12番 3号,35.60694885253906,139.72720336914062,심리적 하자
145,千代田区,東京都品川区二葉1丁目13-9 メゾンドアストル 203号室,病死がありました,不明,東京都 品川区 二葉 一丁目 13番 9号,35.6055793762207,139.72621154785156,병사가 있었습니다.
146,千代田区,東京都千代田区九段南一丁目3-1,飛び降り自殺,2021年05月初旬,東京都 千代田区 九段 南一丁目 3番 1号,35.693973541259766,139.75283813476562,뛰어내리 자살
147,千代田区,東京都千代田区神田神保町二丁目4-29 松本ビル,敷地内 死体発見,平成19年8月21日,東京都 千代田区 神田神保町 二丁目 4番,35.69618225097656,139.75579833984375,부지내 시체 발견
148,千代田区,東京都千代田区神田神保町三丁目11-1 6階,自殺,2011年,東京都 千代田区 神田神保町 三丁目 11番地,35.69532012939453,139.7544708251953,자살
149,千代田区,東京都千代田区神田神保町二丁目六丁目11-4,"メゾン・ド・ヴィレ神田神保町406号室
告知事項有り",不明,東京都 千代田区 神田神保町 二丁目 6番地,35.69655227661133,139.75550842285156,매드라디 가네다 신포초 440호실 공지사항
150,足立区,東京都千代田区神田神保町一丁目10柏水堂ビル4階,火災による死亡,平成21年7月3日,東京都 千代田区 神田神保町 一丁目 10番地,35.69612121582031,139.75840759277344,화재로 인한 사망
151,足立区,東京都足立区中央本町四丁目6-2 セントラルハイツ 1階,告知事項あり（不動産情報より）,2020年3月現在,東京都 足立区 中央本町 四丁目 6番 2号,35.77640151977539,139.80618286132812,공지사항 있습니다~ 부동산 정보부터!
152,足立区,東京都足立区中央本町四丁目6-2 セントラルハイツ,"102号室
告知事項有",令和4年5月10日,東京都 足立区 中央本町 四丁目 6番 2号,35.77640151977539,139.80618286132812,102호실 공지사항
153,目黒区,東京都足立区中央本町一丁目18-12,604号室から女性が犬を抱き飛び降り。,2011年頃,東京都 足立区 中央本町 一丁目 18番 12号,35.775760650634766,139.8054962158203,604호실에서 여자가 개를 안고 뛰어내렸다.
154,目黒区,東京都目黒区上目黒二丁目37-12,3階。孤高死,2022/3,東京都 目黒区 上目黒 二丁目 37番 12号,35.64122009277344,139.69618225097656,3층 고비고사
155,目黒区,東京都目黒区上目黒二丁目17-20,心理的瑕疵,2012,東京都 目黒区 上目黒 二丁目 17番 20号,35.642303466796875,139.6982421875,심리적 하자
156,目黒区,東京都目黒区上目黒二丁目16-11,練炭自殺,2010〜2011,東京都 目黒区 上目黒 二丁目 16番 11号,35.642051696777344,139.69749450683594,연탄 자살
157,目黒区,東京都目黒区上目黒二丁目18-2,賃貸物件サイトに病死の部屋がある旨、記載あり,2014年？,東京都 目黒区 上目黒 二丁目 18番 2号,35.64180374145508,139.69752502441406,임대건물 사이트에 병사가 있는 것 등 기재
158,目黒区,東京都目黒区上目黒二丁目15-4,"訂正して下さり、ありがとうございます。

東京都目黒区上目黒2-15-4 マスダビル 増田隆良 30.10.24.",平成30年10月24日,東京都 目黒区 上目黒 二丁目 15番 4号,35.64253616333008,139.69801330566406,정정해 주셔서 감사합니다 도쿄도 메구로구 상메구 시라
159,目黒区,東京都目黒区中目黒一丁目10-22中目黒ハイツ15階↓3階,転落死,平成23年10月21日,東京都 目黒区 中目黒 一丁目 10番 22号,35.64309310913086,139.7009735107422,회전사
160,練馬区,東京都練馬区練馬一丁目6-8 ボナール縁,5階 504号室 心理的瑕疵あり,平成30年10月25日,東京都 練馬区 練馬 一丁目 6番 8号,35.73716354370117,139.6514434814453,5층 504호실 심리적 하자
161,練馬区,東京都練馬区練馬一丁目6-15,"サンパレス練馬105号室
告知事項あり",不明,東京都 練馬区 練馬 一丁目 6番 15号,35.7375373840332,139.65182495117188,쌈밥레스 네기 105호실 공지사항
162,練馬区,東京都練馬区練馬三丁目2-5,14階で自殺,平成30年11月29日,東京都 練馬区 練馬 三丁目 2番 5号,35.73710632324219,139.64971923828125,14층에서 자살
163,練馬区,東京都練馬区中村北一丁目11-3 フォーラムイン東京,"504号室、1309号室
告知事項あり",令和4年9月3日,東京都 練馬区 中村 北一丁目 11番 3号,35.73662185668945,139.64816284179688,"504호실, 1309호실 공지사항 있으시죠."
164,府中市,東京都練馬区練馬三丁目2-8ライオンズマンション練馬403,絞殺,平成21年6月16日,東京都 練馬区 練馬 三丁目 2番 8号,35.73722839355469,139.6492462158203,컷살
165,府中市,東京都府中市宮西町五丁目5-1 アーバンオルム府中402号室,"孤独死。死後数ヶ月で発見。
死臭、蝿。",2022年11月頃,東京都 府中市 宮西町 五丁目 5番,35.66963195800781,139.47569274902344,"고독사. 죽은 지 몇 달 만에 발견. 사고, 벌레."
166,府中市,東京都府中市本町二丁目10-20,死体発見,令和2年8月19日,東京都 府中市 本町 二丁目 10番,35.667762756347656,139.47398376464844,시체 발견
167,府中市,東京都府中市宮西町五丁目3-6,住民の自殺,過去14年の間,東京都 府中市 宮西町 五丁目 3番,35.66957092285156,139.47618103027344,주민의 자살
168,八王子市,東京都府中市宮西町五丁目6-5,男性の孤高死、病死。,令和3年8月6日,東京都 府中市 宮西町 五丁目 6番,35.66964340209961,139.47540283203125,"남성의 고고사, 병살."
169,八王子市,東京都八王子市元本郷町一丁目22-6 メゾンドセリゼ 101号室,会社経営の30代男性が経営苦を理由に縊死。現在も実父が居住中。,平成29年12月,東京都 八王子市 元本郷町 一丁目 22番 6号,35.66501998901367,139.31991577148438,회사 경영인 30대 남성이 경영난을 이유로 숨졌다. 현재도 친아버지가 거주 중.
170,八王子市,東京都八王子市元本郷町二丁目12-4,同棟5階に住む60～70代の女性の腐乱した遺体を発見(死後数週間経過)。夫(67)を死体遺棄容疑で逮捕、「市営住宅元本郷団地」4号棟の外階段踊り場。,平成21年11月12日,東京都 八王子市 元本郷町 二丁目 12番,35.6644287109375,139.31900024414062,동동 5층에 사는 40~50대 여성의 부패한 시신을 발견(사후 몇 주
171,八王子市,東京都八王子市元本郷町三丁目24-1,首吊り自殺,首吊り自殺,東京都 八王子市 元本郷町 三丁目 24番,35.66649627685547,139.316162109375,목살 자살
172,国分寺市,東京都八王子市元本郷町四丁目13-2都営元本郷町四丁目アパート2号棟108,刺殺,平成26年6月13日,東京都 八王子市 元本郷町 四丁目 13番,35.66514205932617,139.31326293945312,사시미
173,国分寺市,東京都国分寺市戸倉一丁目8-25 プレイスK,"606号室
告知事項あり",令和4年7月30日,東京都 国分寺市 戸倉 一丁目 8番,35.70952224731445,139.46177673339844,606호실 공지사항
174,国分寺市,東京都国分寺市戸倉一丁目5-14,火災によりお亡くなり,30年前,東京都 国分寺市 戸倉 一丁目 5番,35.71035385131836,139.4623565673828,화재로 돌아가셔서
175,町田市,東京都町田市森野二丁目1-4,死亡事故,平成24年10月12日,東京都 町田市 森野 二丁目 1番 4号,35.54475021362305,139.4391632080078,사망사고
176,町田市,東京都町田市森野一丁目4-11都営森野住宅11号棟3階,火災による死亡,平成27年12月29日,東京都 町田市 森野 一丁目 4番,35.54368591308594,139.44052124023438,화재로 인한 사망
177,青梅市,東京都町田市森野一丁目3-4,1F 孤高死,2020年3月,東京都 町田市 森野 一丁目 3番,35.544334411621094,139.44036865234375,1F 고고사
178,青梅市,東京都青梅市東青梅二丁目16-12,熱中症により孤高死,2014年か2015年の8月頃,東京都 青梅市 東青梅 二丁目 16番,35.78951644897461,139.27481079101562,열사병에 의해 고비고사
179,青梅市,東京都青梅市東青梅三丁目8-5,告知事項あり。業者は全オーナーが病死と伝えてきたが、正確には前々オーナーが自殺、全オーナーが失踪とのこと。,2018年時点での情報,東京都 青梅市 東青梅 三丁目 8番,35.78899002075195,139.27613830566406,"공지사항 있음. 업체는 전 주인이 사망이라고 전했지만, 정확하게는 전 주인이 자살하고"
180,青梅市,東京都青梅市東青梅二丁目一六丁目3-501号室,自殺,平成29年10月8日,東京都 青梅市 東青梅 二丁目 16番,35.78951644897461,139.27481079101562,자살
181,調布市,東京都青梅市東青梅三丁目12,心理的瑕疵物件,平成２０年頃,東京都 青梅市 東青梅 三丁目 12番,35.79007339477539,139.27706909179688,심리적 하자물건
182,調布市,東京都調布市小島町二丁目12-1 ＡＬＰＩＮＥ ＣＯＵＲＴ １ 1階,告知事項あり（不動産情報より）,2020年1月現在,東京都 調布市 小島町 二丁目 12番,35.651649475097656,139.53900146484375,공지사항 있습니다~ 부동산 정보부터!
183,調布市,東京都調布市小島町二丁目14-26ユマニテ調布103,傷害致死,平成24年9月18日～平成24年9月20日,東京都 調布市 小島町 二丁目 14番地,35.65229034423828,139.53961181640625,상해치사
184,調布市,東京都調布市小島町二丁目19-5,"ファミール小島町2F（部屋番号不明）
心理的瑕疵物件あり",不明,東京都 調布市 小島町 二丁目 19番,35.65207290649414,139.53993225097656,미카롤 오시마마치 2F(방번호 불명) 심리불안 물품
185,調布市,東京都調布市小島町二丁目12,"◆エスター調布B203号室◆
死亡している70代くらいの女性と50代くらいの男性発見。外傷なし。連絡が取れず施錠されていたので、消防がベランダの窓を割って部屋に入り発見。いずれもあおむけの状態で倒れていた。
https://www.tokyo-np.co.jp/article/150176
https://www.sankei.com/article/20211221-JCD34JMV4FJB5KUT54ME6VEQEY/",令和4年1月20日,東京都 調布市 小島町 二丁目 12番,35.651649475097656,139.53900146484375,*에스탈포크 B203호실 : 사망하고 있는 70대 여성
186,武蔵野市,東京都調布市小島町二丁目12-1 アルパイン・コートⅡ,"201号室 角部屋
告知事項有",令和4年5月27日,東京都 調布市 小島町 二丁目 12番,35.651649475097656,139.53900146484375,2016호실 각 방안내사항
187,三鷹市,東京都武蔵野市緑町二丁目6-4 都営武蔵野緑町2丁目第3アパート4号棟,死体発見,平成17年12月28日,東京都 武蔵野市 緑町 二丁目 6番 4号,35.71683883666992,139.56155395507812,시체 발견
188,小金井市,東京都三鷹市下連雀九丁目5-40 アケボノマンション 202号室,告知事項が御座います,不明,東京都 三鷹市 下連雀 九丁目 5番 40号,35.684505462646484,139.56077575683594,공지 사항이 있습니다.
189,小金井市,東京都小金井市本町六丁目5-3,シャトー小金井10階 火災で1人死亡,平成15年5月10日,東京都 小金井市 本町 六丁目 5番 3号,35.698970794677734,139.5041961669922,샤토 코가네이 10층 화재로 1명이 사망
190,小金井市,東京都小金井市前原町三丁目40-1,"11階 61.05㎡
10階 63.47㎡
告知事項あり",不明,東京都 小金井市 前原町 三丁目 40番 1号,35.696651458740234,139.5057373046875,11층 61.1% 10층 63.1% 공지사항 있음.
191,東村山市,東京都小金井市本町六丁目1-15,"ＩＲＩＥ武蔵野4F407号室
心理的瑕疵物件",不明,東京都 小金井市 本町 六丁目 1番 15号,35.6989631652832,139.50636291503906,무사시노우치 4F 407호실 심리적 손상물건
192,東村山市,東京都東村山市本町一丁目4-45エミュー久米川,103号室 亡くなって3日ほどたって独居男性発見,平成27年7月29日,東京都 東村山市 本町 一丁目 4番,35.753639221191406,139.46713256835938,103호실에 돌아가신 지 3일 정도 되면서 독거남성 발견
193,東村山市,東京都東村山市本町一丁目13-24 ワコーレ東村山,"112号室
告知事項有",令和4年5月27日,東京都 東村山市 本町 一丁目 13番,35.75448226928711,139.46621704101562,112호 공지사항유
194,東村山市,東京都東村山市本町一丁目6-1,孤高死男性発見。知人による発見。,2016年,東京都 東村山市 本町 一丁目 6番,35.75218963623047,139.4691925048828,고독한 살인성 발견. 지인에 의한 발견.
195,東村山市,東京都東村山市本町一丁目13-24,室内で入居者の方が病死。,昨年,東京都 東村山市 本町 一丁目 13番,35.75448226928711,139.46621704101562,실내에서 입주자가 사망.
196,東村山市,東京都東村山市栄町三丁目1-28 久米川マンション 5階,告知事項あり（不動産情報より）,2020年2月現在,東京都 東村山市 栄町 三丁目 1番,35.751609802246094,139.46737670898438,공지사항 있습니다~ 부동산 정보부터!
197,東村山市,東京都東村山市本町一丁目3-21,独居高齢者の不審死（事件と事故双方の可能性）,2021年夏,東京都 東村山市 本町 一丁目 3番,35.75357437133789,139.4685516357422,독거노인의 수상한 심사가 일어난 사건 2건과 사고 양측 모두 가능할 것 같
198,東村山市,東京都東村山市本町四丁目4都営東村山本町アパート9号棟4階東から5番目の部屋,死体発見,令和元年11月29日,東京都 東村山市 本町 四丁目 4番,35.752777099609375,139.4703826904297,시체 발견
199,東村山市,東京都東村山市本町四丁目13−３９ エミネンス,エントランスにて殺人事件あり,不明,東京都 東村山市 本町 四丁目 13番,35.752037048339844,139.47218322753906,엔트런에 살인사건 있어.
200,東村山市,東京都東村山市栄町一丁目25-9,202号室で50～60代の男性が死亡。（令和4年3月3日官報）,令和2年9月上旬,東京都 東村山市 栄町 一丁目 25番,35.75163650512695,139.47361755371094,205호실은 20대 남성이 사망.
201,多摩市,東京都東村山市栄町一丁目28-1,toirenaidekodokusi sumimasenn ro majinyuuryokumuridesu,平成25年3月13日,東京都 東村山市 栄町 一丁目 28番,35.75194549560547,139.47618103027344,torire nadio cooki summi sau meni
202,多摩市,東京都多摩市貝取1493,208号 64.40㎡ 角部屋 告知事項あり,不明,東京都 多摩市 貝取 1493番地,35.63566970825195,139.4474334716797,2018.4.46 CCC에 대한 공지사항 있음.
203,国立市,東京都多摩市貝取六丁目10-10,心理的瑕疵,2015年頃,東京都 多摩市 貝取,35.63588333129883,139.4453887939453,심리적 하자
204,国立市,東京都国立市富士見台二丁目31-5,"2階孤高死
発見は早かった",2018年前後,東京都 国立市 富士見台 二丁目 31番,35.6843147277832,139.44447326660156,2층 고고사 발견은 빨랐다.
205,国立市,東京都国立市富士見台一丁目6-3,211号室 特別募集住宅,不明,東京都 国立市 富士見台 一丁目 6番,35.68589782714844,139.44863891601562,212호 특가모집주택
206,国立市,東京都国立市富士見台二丁目8-4,飛び降り,平成27年11月25日,東京都 国立市 富士見台 二丁目 8番,35.6844482421875,139.44700622558594,비옷
207,国立市,東京都国立市富士見台二丁目9-9,老人男性の孤高死。夫婦で暮らしていたが、妻は認知症のため夫の死に気付かず。,2007年ごろ,東京都 国立市 富士見台 二丁目 9番,35.68383026123047,139.44664001464844,"노인 남성의 고독사. 부부가 살고 있었지만, 아내는 치매 때문에 남편의 죽음을 알아차리지 못하고."
208,国立市,東京都国立市富士見台二丁目9-14,病死,平成27年6月14日,東京都 国立市 富士見台 二丁目 9番,35.68383026123047,139.44664001464844,병살
209,国立市,東京都国立市富士見台一丁目11-7,孤高死 数週間発見されず腐乱,2010年秋頃,東京都 国立市 富士見台 一丁目 11番,35.68244552612305,139.44830322265625,고공 사망 수 주 발견되지 않아 부패
210,国立市,東京都国立市富士見台一丁目10-3,1階 孤高死,2017年夏,東京都 国立市 富士見台 一丁目 10番,35.682945251464844,139.44837951660156,1층 고고사
211,国立市,東京都国立市富士見台二丁目9-10,老婆の孤高死。死後1カ月程で腐乱がかなり進んだ状態で、異臭による通報で発覚。全ての窓、扉が施錠してあり、警察立会いのもと消防士が窓を壊し侵入。部屋の中から窓と雨戸を開けると、辺り一面に異臭とハエが蔓延。,平成27年9月15日,東京都 国立市 富士見台 二丁目 9番,35.68383026123047,139.44664001464844,노파의 고공 사망. 사망 후 1개월 정도 부상이 상당히 진행된 상태에서 이냄새
212,狛江市,東京都狛江市和泉本町一丁目36-3 狛江セントラルハイツ３号棟 8階,"心理的瑕疵有
内装リフォーム済：2018年01月",時期不明,東京都 狛江市 和泉本町 一丁目 36番,35.636199951171875,139.5779266357422,심리적 하자 유무 인테리어 리모델링 완료 2018년 1월
213,狛江市,東京都狛江市岩戸北一丁目12-10,205号室 過労死,平成30年3月25日,東京都 狛江市 岩戸 北一丁目 12番 10号,35.637638092041016,139.5802764892578,205호실 과로사
214,狛江市,東京都狛江市和泉本町一丁目13-16,遺体発見,平成30年1月28日,東京都 狛江市 和泉本町 一丁目 13番 16号,35.63856506347656,139.5793914794922,시신 발견
215,狛江市,東京都狛江市岩戸北一丁目8-13 スカイハイツI 2階,告知事項あり（不動産情報より）,2020年3月現在,東京都 狛江市 岩戸 北一丁目 8番 13号,35.63681411743164,139.58041381835938,공지사항 있습니다~ 부동산 정보부터!
216,狛江市,東京都狛江市一中通り,"部屋番号不明 7階
告知事項あり(前の住人が洗面所で病死されてます)

ホームズ、SUUMOにて掲載中",2022.3.31日現在,東京都 狛江市,35.63481521606445,139.5786895751953,방 번호가 불명 7층 공지사항(전주시 화장실에서 사망)홈
217,狛江市,東京都狛江市岩戸北二丁目11-1,703号室告知事項ありでの不動産賃貸募集,2022年3月頃,東京都 狛江市 岩戸 北二丁目 11番,35.637489318847656,139.58291625976562,703호실 공지사항 있는 부동산 임대모집
218,狛江市,東京都狛江市岩戸北二丁目11-1 プレイスガーデン喜多見,"703号室
※告知事項あり【洗面台にて病死】（SUUMOより）",令和4年5月1日,東京都 狛江市 岩戸 北二丁目 11番,35.637489318847656,139.58291625976562,703호실 : 공지사항 있음 [세면대에서 사망](SUM
219,西東京市,東京都狛江市岩戸北三丁目5-14,"ライオンズ喜多見ガーデンテラス2階
自殺",2020,東京都 狛江市 岩戸 北三丁目 5番,35.63569641113281,139.5840606689453,라이온스 기다미 가든 카운터 라이스 2층에 살사
220,西東京市,東京都西東京市南町三丁目3-12,男性遺体発見,平成19年2月2日,東京都 西東京市 南町 三丁目 3番 12号,35.72727966308594,139.54244995117188,남성 시체 발견
221,西東京市,東京都西東京市田無町二丁目12-21,"シェア田無
告知事項あり",2018,東京都 西東京市 田無町 二丁目 12番 21号,35.728363037109375,139.5423126220703,쉐프간고지사항
222,小平市,東京都立川市泉町1156-4,"薬使用後に７階位の踊り場から飛び降り自殺。
１８歳位の男性",８年位前,東京都 立川市 泉町 1156番地,35.71528625488281,139.40628051757812,약 사용 후 1층 높이에서 뛰어내리며 자살.
223,小平市,東京都小平市仲町628-64,奥様が自殺。今は取り壊されている,20年くらい前,東京都 小平市 仲町 628番地,35.72887420654297,139.4816131591797,사모님이 자살하셨어 지금은 헐리고 있어.
224,羽村市,東京都小平市小川町二丁目1356-31みゆき荘2階,死体発見,約2年前,東京都 小平市 小川町 二丁目 1356番地,35.7293586730957,139.4788360595703,시체 발견
225,羽村市,東京都羽村市緑ヶ丘五丁目1-50,駐車スペース横の部屋で住民男性が首吊り自殺,2005,東京都 羽村市 緑ヶ丘 五丁目 1番,35.76708984375,139.3101348876953,주차 공간 옆방에서 주민 남자가 목살 자살한
226,武蔵村山市,東京都羽村市羽中一丁目3-37,告知事項,不明,東京都 羽村市 羽中 一丁目 3番 37号,35.76545715332031,139.3101806640625,공고사항
227,昭島市,東京都武蔵村山市中央一丁目24-3ハウスオブブーケA 1階,死体発見,平成24年,東京都 武蔵村山市 中央 一丁目 24番地,35.75288772583008,139.3889923095703,시체 발견
228,福生市,東京都昭島市田中町一丁目34-9,火災による死亡,令和2年9月7日,東京都 昭島市 田中町 一丁目 34番 9号,35.70568084716797,139.3511199951172,화재로 인한 사망
229,福生市,東京都福生市志茂156-1,通路から駐車場へ男性が飛び下り自殺,2016年,東京都 福生市 志茂 156番地,35.73866271972656,139.32952880859375,통로에서 주차장으로 남성이 뛰어내리며 자살.
230,新宿区,東京都新宿区歌舞伎町一丁目202,819号室で女性死亡,平成30年5月23日,東京都 新宿区 歌舞伎町 一丁目,35.69539260864258,139.7012939453125,819호실에서 여성 사망
231,新宿区,東京都新宿区歌舞伎町一丁目202アパホテル新宿歌舞伎町タワー↓,飛び降り自殺,令和3年5月18日,東京都 新宿区 歌舞伎町 一丁目,35.69539260864258,139.7012939453125,뛰어내리 자살
232,新宿区,東京都新宿区西新宿七丁目1813,"告知事項あり
※管理会社に直接確認済み

ハイム大成ビル 403号室
賃料¥78000 管理費¥2000
前入居者が室内で自殺",1年以内,東京都 新宿区 西新宿 七丁目,35.695579528808594,139.69723510742188,고지사례사항 없음
233,新宿区,東京都新宿区西新宿七丁目1713パレステュディオ新宿WEST,１４Ｆから女性が飛び降り自殺,令和元年9月23日,東京都 新宿区 西新宿 七丁目,35.695579528808594,139.69723510742188,여자가 뛰어내리고 자살
234,新宿区,東京都新宿区西新宿七丁目2231,事故死,2016,東京都 新宿区 西新宿 七丁目,35.695579528808594,139.69723510742188,사고
235,新宿区,東京都新宿区西新宿一丁目38,病死,令和3年,東京都 新宿区 西新宿 一丁目,35.69038391113281,139.69749450683594,병살
236,新宿区,東京都新宿区新宿三丁目227指田ビル地下1階,死体発見,平成24年11月5日,東京都 新宿区 新宿 三丁目,35.69122695922852,139.7035675048828,시체 발견
237,新宿区,東京都新宿区西新宿七丁目59,20階で飛び降り自殺,不明,東京都 新宿区 西新宿 七丁目,35.695579528808594,139.69723510742188,20층에서 뛰어내리고 자살
238,新宿区,東京都新宿区歌舞伎町二丁目4514,2F 男性死亡 心霊現象あり,平成30年頃,東京都 新宿区 歌舞伎町 二丁目,35.696556091308594,139.70382690429688,2F 남성 사망 심령 현상
239,新宿区,東京都新宿区歌舞伎町二丁目4514 ホテルボン,客室浴槽内 死体発見,平成24年12月24日,東京都 新宿区 歌舞伎町 二丁目,35.696556091308594,139.70382690429688,객실 욕조 내사체 발견
240,新宿区,東京都新宿区西新宿一丁目39,飛び降り自殺,令和4年,東京都 新宿区 西新宿 一丁目,35.69038391113281,139.69749450683594,뛰어내리 자살
241,新宿区,東京都新宿区西新宿七丁目59ファーストリアルタワー31階,飛び降り自殺,2018年,東京都 新宿区 西新宿 七丁目,35.695579528808594,139.69723510742188,뛰어내리 자살
242,新宿区,東京都新宿区西新宿七丁目310山京ビル,飛び降り自殺,平成27年2月20日,東京都 新宿区 西新宿 七丁目,35.695579528808594,139.69723510742188,뛰어내리 자살
243,新宿区,東京都新宿区歌舞伎町一丁目202アパホテル新宿歌舞伎町タワー23階非常階段↓,転落させて殺害,令和3年12月29日,東京都 新宿区 歌舞伎町 一丁目,35.69539260864258,139.7012939453125,넘어져 살해
244,新宿区,東京都新宿区西新宿七丁目1610,1Fにて女性自殺,平成19年頃,東京都 新宿区 西新宿 七丁目,35.695579528808594,139.69723510742188,1F에 여자 자살
245,新宿区,東京都新宿区歌舞伎町一丁目145 ハクタカビル,屋上より 飛び降り自殺,平成21年8月20日,東京都 新宿区 歌舞伎町 一丁目,35.69539260864258,139.7012939453125,옥상보다 뛰어내리고 자살
246,新宿区,東京都新宿区西新宿七丁目59 ファーストリアルタワー808,首吊り自殺,令和2年2月29日,東京都 新宿区 西新宿 七丁目,35.695579528808594,139.69723510742188,목살 자살
247,新宿区,東京都新宿区歌舞伎町二丁目441東京都健康プラザハイジアB2F駐車場,死体発見,平成22年3月16日,東京都 新宿区 歌舞伎町 二丁目,35.696556091308594,139.70382690429688,시체 발견
248,新宿区,東京都新宿区歌舞伎町一丁目275 中台ビル,2階サウナロイヤル 死体発見,平成20年1月5日,東京都 新宿区 歌舞伎町 一丁目,35.69539260864258,139.7012939453125,2층 사우나 로얄 시체 발견
249,新宿区,東京都新宿区歌舞伎町二丁目396,1F 首吊り,2010年頃,東京都 新宿区 歌舞伎町 二丁目,35.696556091308594,139.70382690429688,1F 목살
250,新宿区,東京都新宿区西新宿七丁目1514FONTAINE三須102号室,"2019年10月下旬、40代後半男性が部屋の中で孤高死。
2019年12月下旬に発見される。
死亡から2ヶ月経っていたため、遺体の腐乱が進んでいた模様。
遺体回収時には内廊下のため、建物内1階全体が腐乱臭で充満。

2020年2月初旬現在、清掃終了、その後内装解体中。",2019年10月下旬,東京都 新宿区 西新宿 七丁目,35.695579528808594,139.69723510742188,"2019년 10월 하순, 40대 후반 남성이 방에서 고독사.2019년 12월 하순"
251,新宿区,東京都新宿区西新宿七丁目59プロスペクト・アクス・ザ・タワー新宿2008,首吊り自殺,平成27年9月26日,東京都 新宿区 西新宿 七丁目,35.695579528808594,139.69723510742188,목살 자살
252,新宿区,東京都新宿区西新宿七丁目525,"20階
心理的瑕疵あり",不明,東京都 新宿区 西新宿 七丁目,35.695579528808594,139.69723510742188,20층 심리적 하자 있음.
253,新宿区,東京都新宿区西新宿一丁目13 小田急百貨店新宿店,本館2階女子トイレ 死体発見,平成24年7月8日,東京都 新宿区 西新宿 一丁目 13番,35.689842224121094,139.69671630859375,본관 2층 여자화장실 시체 발견
254,新宿区,東京都新宿区西新宿一丁目73東京モード学園コクーンタワー4階↓地下2階,転落死,平成20年5月16日,東京都 新宿区 西新宿 一丁目,35.69038391113281,139.69749450683594,회전사
255,新宿区,東京都新宿区西新宿一丁目188,"1F出入り口付近
身元不明の男性遺体発見",平成18年2月1日,東京都 新宿区 西新宿 一丁目,35.69038391113281,139.69749450683594,1F 출입문 부근 신원불명의 남성 시체 발견
256,新宿区,東京都新宿区西新宿一丁目73,飛び降り自殺,19年頃,東京都 新宿区 西新宿 一丁目,35.69038391113281,139.69749450683594,뛰어내리 자살
257,新宿区,東京都新宿区新宿三丁目275,男性 飛び降り自殺,平成30年2月21日,東京都 新宿区 新宿 三丁目,35.69122695922852,139.7035675048828,남자애들 뛰어내리 자살
258,新宿区,東京都新宿区西新宿一丁目14 京王デパート,2階女子トイレ 死体発見,平成21年1月21日,東京都 新宿区 西新宿 一丁目 14番,35.68880844116211,139.69671630859375,2층 여자화장실 시체 발견
259,新宿区,東京都新宿区西新宿一丁目14 京王百貨店,8階 死体発見,平成28年11月30日,東京都 新宿区 西新宿 一丁目 14番,35.68880844116211,139.69671630859375,8층 시체 발견
260,新宿区,東京都新宿区西新宿一丁目13,トイレで心肺停止女性発見、その後死亡,平成24年2月11日,東京都 新宿区 西新宿 一丁目 13番,35.689842224121094,139.69671630859375,"화장실에서 심폐정지 여성 발견, 그 후 사망"
261,新宿区,東京都新宿区西新宿一丁目512 ニューセントラルビル,死体発見,平成22年4月21日,東京都 新宿区 西新宿 一丁目,35.69038391113281,139.69749450683594,시체 발견
262,新宿区,東京都新宿区西新宿一丁目185甲新ビル中沖ビル,"甲新ビル9階 23時頃
店舗利用客が窓から飛び降り即死",平成30年8月1日,東京都 新宿区 西新宿 一丁目,35.69038391113281,139.69749450683594,갑오신빌딩 9층 23시쯤 매점 이용객이 창문으로 뛰어내리며 즉
263,新宿区,東京都新宿区西新宿一丁目1,首吊り自殺,令和2年1月7日,東京都 新宿区 西新宿 一丁目 1番,35.68857955932617,139.69943237304688,목살 자살
264,新宿区,東京都新宿区西新宿一丁目14 京王百貨店 ４階,男性が東側男子便所個室にて首吊り自殺,不明,東京都 新宿区 西新宿 一丁目 14番,35.68880844116211,139.69671630859375,남성이 동쪽 남자 변소실 개인실에서 목살 자살
265,新宿区,東京都新宿区西新宿一丁目71,"9回のわかものハローワークに来た仕事探しの男性が何件の仕事を探したが断わりつづられてそのビルの屋上に出て飛び降り自殺をした。

それがもとで今はそのビルは屋上に出れなくなっている。",不明,東京都 新宿区 西新宿 一丁目,35.69038391113281,139.69749450683594,9번의 할로윈(ハ<unk><unk>ー<unk>ン) 해변에 온 일자리를 찾는
266,新宿区,東京都新宿区歌舞伎町二丁目210,死因不明の変死。,2011年12月,東京都 新宿区 歌舞伎町 二丁目,35.696556091308594,139.70382690429688,사망의 변사.
267,新宿区,東京都新宿区歌舞伎町二丁目43,5階から飛び降り自殺,2020年,東京都 新宿区 歌舞伎町 二丁目 43番,35.697418212890625,139.7013397216797,5층에서 뛰어내리고 자살
268,新宿区,東京都新宿区歌舞伎町一丁目15,店員が急性アルコール中毒にて店内で死亡しているのを別の店員が発見,令和4年6月5日,東京都 新宿区 歌舞伎町 一丁目 15番,35.69414138793945,139.70213317871094,점원이 급성 알코올 중독으로 가게 안에서 사망한 것을 다른 점원이 발견.
269,新宿区,東京都新宿区新宿三丁目214,強盗殺人,2010年頃,東京都 新宿区 新宿 三丁目,35.69122695922852,139.7035675048828,강도살인
270,新宿区,東京都新宿区歌舞伎町二丁目二丁目221,飛び降り自殺,201412,東京都 新宿区 歌舞伎町 二丁目 2番,35.69594192504883,139.70675659179688,뛰어내리 자살
271,新宿区,東京都新宿区歌舞伎町二丁目356,コインロッカー内に乳児の腐乱死体。,平成30年6月12日,東京都 新宿区 歌舞伎町 二丁目,35.696556091308594,139.70382690429688,코인 보관함에 유아의 부패사체.
272,新宿区,東京都新宿区歌舞伎町一丁目28,"女性の転落死。
屋上から飛び降りたとみられる。",2015年8月頃,東京都 新宿区 歌舞伎町 一丁目 28番,35.695369720458984,139.70034790039062,여자의 굴락 사망. 옥상에서 뛰어내린 것으로 보인다.
273,新宿区,東京都新宿区歌舞伎町二丁目1414コスモ佐藤4F,首吊り自殺,平成17年,東京都 新宿区 歌舞伎町 二丁目,35.696556091308594,139.70382690429688,목살 자살
274,新宿区,東京都新宿区歌舞伎町二丁目82,902号室で自殺あり。,2020年7月初旬,東京都 新宿区 歌舞伎町 二丁目,35.696556091308594,139.70382690429688,902호실에서 자살.
275,新宿区,東京都新宿区歌舞伎町二丁目331,若い女性が屋上から飛び降り自殺,平成30年5月13日,東京都 新宿区 歌舞伎町 二丁目,35.696556091308594,139.70382690429688,젊은 여성이 옥상에서 뛰어내리며 자살.
276,新宿区,東京都新宿区新宿五丁目1610,伊勢丹テナント関係者の首吊り自殺,2008年頃,東京都 新宿区 新宿 五丁目,35.69316864013672,139.70787048339844,이세탄 인스트래빗 관계자의 목살 자살
277,新宿区,東京都新宿区歌舞伎町二丁目185 プラーズタワー東新宿,"309号室、709号室、808号室
告知事項あり",令和4年8月20日,東京都 新宿区 歌舞伎町 二丁目,35.696556091308594,139.70382690429688,"309호실, 709호실, 808호실 공지사항 있으십"
278,新宿区,東京都新宿区歌舞伎町二丁目2711,ビルの4階で死体〆76,平成23年6月29日,東京都 新宿区 歌舞伎町 二丁目,35.696556091308594,139.70382690429688,빌딩 4층에서 사체지 766
279,新宿区,東京都新宿区歌舞伎町二丁目331第6トーアビル,若い女性屋上から飛び降り,10年ほど前,東京都 新宿区 歌舞伎町 二丁目,35.696556091308594,139.70382690429688,젊은 여성 옥상에서 뛰어내리
280,新宿区,東京都新宿区歌舞伎町二丁目185プラーズタワー東新宿405,心理的瑕疵物件あり,不明,東京都 新宿区 歌舞伎町 二丁目,35.696556091308594,139.70382690429688,심리적 하자물건
281,新宿区,東京都新宿区新宿六丁目2811ライオンズマンション新宿303,傷害致死,平成26年5月21日,東京都 新宿区 新宿 六丁目,35.69536590576172,139.7097930908203,상해치사
282,新宿区,東京都新宿区歌舞伎町二丁目2911,"ホテル白川郷9階外階段付近から、飛び降り自殺
身元不明男性",平成18年8月18日,東京都 新宿区 歌舞伎町 二丁目,35.696556091308594,139.70382690429688,호텔 시라카와구 9층 외계단 부근에서 뛰어내리는 자살신명불명의
283,新宿区,東京都新宿区歌舞伎町二丁目105 G2ビル6階非常階段↓,転落死,平成26年8月2日,東京都 新宿区 歌舞伎町 二丁目,35.696556091308594,139.70382690429688,회전사
284,新宿区,東京都新宿区新宿五丁目1820 ビジネスホテルミラベル,309号室 首吊り自殺,平成20年12月4日,東京都 新宿区 新宿 五丁目,35.69316864013672,139.70787048339844,309호실목살 자살
285,新宿区,東京都新宿区歌舞伎町二丁目220 ライオンズマンション歌舞伎町A棟,"114号室
宅地建物取引業47条1項に基づく告知事項有り",令和4年5月21日,東京都 新宿区 歌舞伎町 二丁目,35.696556091308594,139.70382690429688,114호실 주택물거래중개 47호1항에 따른 고지사항 있음
286,新宿区,東京都新宿区歌舞伎町一丁目126 歌舞伎町ビル,早朝に屋上から若い女性の飛び降り自殺。,平成21年6月29日,東京都 新宿区 歌舞伎町 一丁目,35.69539260864258,139.7012939453125,이른 아침에 옥상에서 젊은 여자의 뛰어내리기 자살.
287,新宿区,東京都新宿区歌舞伎町二丁目107ダイヤモンドビル,螺旋階段から転落死,平成22年,東京都 新宿区 歌舞伎町 二丁目,35.696556091308594,139.70382690429688,나선계단에서 굴락사
288,新宿区,東京都新宿区歌舞伎町一丁目62TWingビル9階↓,転落死,平成26年12月12日,東京都 新宿区 歌舞伎町 一丁目,35.69539260864258,139.7012939453125,회전사
289,新宿区,東京都新宿区新宿六丁目2722 KT三光ビル,"301号室
心理的瑕疵有り。HOMESより",令和4年4月28日,東京都 新宿区 新宿 六丁目,35.69536590576172,139.7097930908203,301호실 심리적 하자 있음. HOMES
290,新宿区,東京都新宿区歌舞伎町二丁目910ギンレイビルパート2 3階外廊下,死体発見,平成25年6月24日,東京都 新宿区 歌舞伎町 二丁目,35.696556091308594,139.70382690429688,시체 발견
291,新宿区,東京都新宿区歌舞伎町一丁目115扇園ビル1階,刺殺,平成20年4月8日,東京都 新宿区 歌舞伎町 一丁目,35.69539260864258,139.7012939453125,사시미
292,新宿区,東京都新宿区歌舞伎町二丁目221,撲殺,平成24年5月17日,東京都 新宿区 歌舞伎町 二丁目,35.696556091308594,139.70382690429688,뺑소
293,新宿区,東京都新宿区歌舞伎町二丁目305,遺体発見,平成30年12月25日,東京都 新宿区 歌舞伎町 二丁目,35.696556091308594,139.70382690429688,시신 발견
294,新宿区,東京都新宿区歌舞伎町二丁目323新宿セントラルビル3F,刺殺,平成19年4月5日,東京都 新宿区 歌舞伎町 二丁目,35.696556091308594,139.70382690429688,사시미
295,新宿区,東京都新宿区歌舞伎町二丁目106,B1・キャバ嬢自殺,2006〜2012の間,東京都 新宿区 歌舞伎町 二丁目,35.696556091308594,139.70382690429688,"B1,바카다 자살"
296,新宿区,東京都新宿区新宿五丁目1811,5階から飛び降り,2015年ころ,東京都 新宿区 新宿 五丁目,35.69316864013672,139.70787048339844,5층에서 뛰어내리
297,新宿区,東京都新宿区歌舞伎町二丁目86,ホテルDWAVE308号室にて男性が不審死,令和2年1月30日,東京都 新宿区 歌舞伎町 二丁目,35.696556091308594,139.70382690429688,호텔 DWAVE 308호실에서 남성이 수상사
298,新宿区,東京都新宿区歌舞伎町二丁目221ホテルシェーナ504,死体発見,平成22年6月24日,東京都 新宿区 歌舞伎町 二丁目,35.696556091308594,139.70382690429688,시체 발견
299,新宿区,東京都新宿区新宿五丁目1820,"ルックハイツ新宿607
自殺・変死",不明,東京都 新宿区 新宿 五丁目,35.69316864013672,139.70787048339844,룩하이츠 신주쿠 607 자살·변사
300,新宿区,東京都新宿区歌舞伎町二丁目3311ホテル大松,死体発見,平成24年4月3日,東京都 新宿区 歌舞伎町 二丁目,35.696556091308594,139.70382690429688,시체 발견
301,新宿区,東京都新宿区歌舞伎町二丁目148 メトロプラザ4F,傷害致死,令和元年9月21日,東京都 新宿区 歌舞伎町 二丁目,35.696556091308594,139.70382690429688,상해치사
302,新宿区,東京都新宿区歌舞伎町二丁目22,"女性が飛び降り自殺 たこ焼き屋 たこ心の前に落下
落下時男性を巻き込みました

このたこ焼き食べたくないな",平成30年10月2日,東京都 新宿区 歌舞伎町 二丁目 22番,35.69605255126953,139.70408630371094,여자가 뛰어내리며 자살한 야끼야키 타다키 마음 앞에 낙하산 낙하
303,新宿区,東京都新宿区歌舞伎町二丁目1012,ホテルパシャ702号室にて20～30代の男性が死亡しているのを発見。官報より,令和3年7月13日,東京都 新宿区 歌舞伎町 二丁目,35.696556091308594,139.70382690429688,호텔파샤 722호실에서 70대 남성이 사망하는 것을 발견.
304,新宿区,東京都新宿区歌舞伎町二丁目26,2012飛降り,平成24年10月1日,東京都 新宿区 歌舞伎町 二丁目 26番,35.69550323486328,139.70309448242188,2012 비옷
305,新宿区,東京都新宿区新宿六丁目2719金光コーポ新宿805,絞殺,平成19年5月31日,東京都 新宿区 新宿 六丁目,35.69536590576172,139.7097930908203,컷살
306,新宿区,東京都新宿区歌舞伎町二丁目221ライオンズマンション歌舞伎町,刺殺,令和5年5月29日,東京都 新宿区 歌舞伎町 二丁目,35.696556091308594,139.70382690429688,사시미
307,新宿区,東京都新宿区新宿五丁目1810,飛び降り自殺,令和4年12月12日,東京都 新宿区 新宿 五丁目,35.69316864013672,139.70787048339844,뛰어내리 자살
308,新宿区,東京都新宿区歌舞伎町二丁目186日光ビル,喧嘩になり撲殺,不明,東京都 新宿区 歌舞伎町 二丁目,35.696556091308594,139.70382690429688,싸움이 되어 죽겠어
309,新宿区,東京都新宿区歌舞伎町二丁目68,薬物により落下事故。2012未明,平成25年6月1日,東京都 新宿区 歌舞伎町 二丁目,35.696556091308594,139.70382690429688,약물에 의해 낙하사고. 2012명 미정
310,新宿区,東京都新宿区歌舞伎町二丁目215,飛び降り自殺,平成30年10月12日,東京都 新宿区 歌舞伎町 二丁目,35.696556091308594,139.70382690429688,뛰어내리 자살
311,新宿区,東京都新宿区歌舞伎町二丁目292,転落死の可能性有。,分かりません。,東京都 新宿区 歌舞伎町 二丁目,35.696556091308594,139.70382690429688,전 낙사 가능성이 있다.
312,新宿区,東京都新宿区歌舞伎町二丁目212ソフィア2 8階↓,転落死,平成20年11月28日,東京都 新宿区 歌舞伎町 二丁目,35.696556091308594,139.70382690429688,회전사
313,新宿区,東京都新宿区歌舞伎町一丁目123 5階,射殺,平成31年1月21日,東京都 新宿区 歌舞伎町 一丁目,35.69539260864258,139.7012939453125,사살
314,新宿区,東京都新宿区歌舞伎町二丁目338ホテルビーナス,絞殺,平成27年9月11日,東京都 新宿区 歌舞伎町 二丁目,35.696556091308594,139.70382690429688,컷살
315,新宿区,東京都新宿区歌舞伎町二丁目359コインロッカー,死体発見,平成30年5月29日,東京都 新宿区 歌舞伎町 二丁目,35.696556091308594,139.70382690429688,시체 발견
316,新宿区,東京都新宿区歌舞伎町二丁目185プラーズタワー東新宿↓,飛び降り自殺,平成25年3月9日,東京都 新宿区 歌舞伎町 二丁目,35.696556091308594,139.70382690429688,뛰어내리 자살
317,新宿区,東京都新宿区歌舞伎町二丁目185 プラ－ズタワ－東新宿 ［14階1410号室］，16階,告知事項あり,不明,東京都 新宿区 歌舞伎町 二丁目,35.696556091308594,139.70382690429688,공고사항
318,新宿区,東京都新宿区新宿五丁目189 シンエイ商会,倉庫2階 腐乱死体発見,平成22年5月31日,東京都 新宿区 新宿 五丁目,35.69316864013672,139.70787048339844,창고 2층 부패사체 발견
319,新宿区,東京都新宿区新宿五丁目155,斬殺,平成18年12月12日,東京都 新宿区 新宿 五丁目,35.69316864013672,139.70787048339844,참살
320,新宿区,東京都新宿区歌舞伎町二丁目185,飛び降り自殺,平成26年12月,東京都 新宿区 歌舞伎町 二丁目,35.696556091308594,139.70382690429688,뛰어내리 자살
321,新宿区,東京都新宿区歌舞伎町二丁目288ホテルアランド,無理心中,平成22年8月26日,東京都 新宿区 歌舞伎町 二丁目,35.696556091308594,139.70382690429688,무리중심 中
322,新宿区,東京都新宿区歌舞伎町一丁目1,オーナーの突然死 死体発見,2020 1月,東京都 新宿区 歌舞伎町 一丁目 1番,35.69324493408203,139.70428466796875,오너의 갑작스런 사망자 발견
323,新宿区,東京都新宿区歌舞伎町二丁目26 ライオンズマンション歌舞伎町第2701,転落死,平成25年2月10日,東京都 新宿区 歌舞伎町 二丁目 26番,35.69550323486328,139.70309448242188,회전사
324,新宿区,東京都新宿区歌舞伎町二丁目2210,自殺,平成30年10月2日,東京都 新宿区 歌舞伎町 二丁目,35.696556091308594,139.70382690429688,자살
325,新宿区,東京都新宿区歌舞伎町二丁目308ホテルラモード607,首吊り自殺,平成25年1月20日,東京都 新宿区 歌舞伎町 二丁目,35.696556091308594,139.70382690429688,목살 자살
326,新宿区,東京都新宿区歌舞伎町二丁目1115ホテルイマージュ506,硫化水素自殺,平成20年5月19日,東京都 新宿区 歌舞伎町 二丁目,35.696556091308594,139.70382690429688,유황수소 자살
327,新宿区,東京都新宿区歌舞伎町二丁目2017朝日新宿館5F,湊□クリニック手術ミスによる患者死亡（現在は閉院）,2012年某月,東京都 新宿区 歌舞伎町 二丁目,35.696556091308594,139.70382690429688,미나토 쿄토 클리닉 수술 실수로 인한 환자 사망! 현재는 폐원!
328,新宿区,東京都新宿区歌舞伎町一丁目27歌舞伎町ダイカンプラザ星座館,中国人女性飛び降りゴミ置き場に転落,約10年前,東京都 新宿区 歌舞伎町 一丁目 27番,35.695274353027344,139.7006378173828,중국인 여성 뛰어내리기 용품 보관소에 넘기
329,新宿区,東京都新宿区歌舞伎町二丁目918ライオンズプラザ新宿2階踊り場,死体発見,令和元年6月30日,東京都 新宿区 歌舞伎町 二丁目,35.696556091308594,139.70382690429688,시체 발견
330,新宿区,東京都新宿区歌舞伎町二丁目401レディース510,死体発見,平成23年3月1日,東京都 新宿区 歌舞伎町 二丁目,35.696556091308594,139.70382690429688,시체 발견
331,新宿区,東京都新宿区歌舞伎町二丁目918,首吊り自殺,平成28年2月5日,東京都 新宿区 歌舞伎町 二丁目,35.696556091308594,139.70382690429688,목살 자살
332,新宿区,東京都新宿区歌舞伎町二丁目274,前のホテルだった頃、女性の遺体発見,7年前ぐらい？,東京都 新宿区 歌舞伎町 二丁目,35.696556091308594,139.70382690429688,전 호텔이었을 때 여성 시신 발견
333,新宿区,東京都新宿区歌舞伎町二丁目2811ホテルまつき1階2階間踊り場,火災による死亡,平成28年1月7日,東京都 新宿区 歌舞伎町 二丁目,35.696556091308594,139.70382690429688,화재로 인한 사망
334,新宿区,東京都新宿区歌舞伎町二丁目111,無理心中 ．,令和3年4月16日,東京都 新宿区 歌舞伎町 二丁目,35.696556091308594,139.70382690429688,무리한 것 같아~
335,新宿区,東京都新宿区歌舞伎町二丁目917,車両事故死,平成29年8月19日,東京都 新宿区 歌舞伎町 二丁目,35.696556091308594,139.70382690429688,차량사고
336,新宿区,東京都新宿区歌舞伎町一丁目27星座館屋上,傷害致死,令和3年11月27日,東京都 新宿区 歌舞伎町 一丁目 27番,35.695274353027344,139.7006378173828,상해치사
337,新宿区,東京都新宿区歌舞伎町二丁目214,飛び降り自殺 ．,平成30年10月2日,東京都 新宿区 歌舞伎町 二丁目,35.696556091308594,139.70382690429688,뛰어내리는 자살!
338,新宿区,東京都新宿区歌舞伎町一丁目4,飛び降り自殺,令和2年7月10日,東京都 新宿区 歌舞伎町 一丁目 4番,35.69391632080078,139.7034454345703,뛰어내리 자살
339,新宿区,東京都新宿区歌舞伎町二丁目286ホテルジロー,死体遺棄,平成29年12月11日,東京都 新宿区 歌舞伎町 二丁目,35.696556091308594,139.70382690429688,시체유채
340,新宿区,東京都新宿区新宿六丁目2720 ダイヤモンドレジデンス新宿,1階 101号室 2018年11月10日 告知事項有り,平成30年11月10日,東京都 新宿区 新宿 六丁目,35.69536590576172,139.7097930908203,1층 101호실 2018년 11월 10일 공고사항
341,新宿区,東京都新宿区歌舞伎町二丁目2311,首吊り,2005年,東京都 新宿区 歌舞伎町 二丁目,35.696556091308594,139.70382690429688,목살
342,新宿区,東京都新宿区新宿三丁目347,"セントラルホテル東京
部屋不明
バス内で女性が首つり自殺",平成18年4月25日,東京都 新宿区 新宿 三丁目,35.69122695922852,139.7035675048828,센트럴호텔 도쿄방부불안버스 안에서 여성이 목도리 자살
343,新宿区,東京都新宿区新宿二丁目64,飛び降り自殺,平成27年11月4日,東京都 新宿区 新宿 二丁目,35.6900634765625,139.70838928222656,뛰어내리 자살
344,新宿区,東京都新宿区新宿三丁目191,敷地内 刺殺,平成21年7月19日,東京都 新宿区 新宿 三丁目,35.69122695922852,139.7035675048828,부지내 살사
345,新宿区,東京都新宿区新宿三丁目72,ホテル建設中屋上より飛び降り自殺,平成27年2月5日,東京都 新宿区 新宿 三丁目,35.69122695922852,139.7035675048828,호텔 건설 중 옥상 위에서 뛰어내리고 자살
346,新宿区,東京都新宿区新宿三丁目2911,"2010年頃
屋上より飛び降り自殺有り",20010,東京都 新宿区 新宿 三丁目,35.69122695922852,139.7035675048828,2010년경 옥상에서부터 뛰어내리고 자살이
347,新宿区,東京都新宿区新宿三丁目342 個室ビデオ個室内,遺体発見,平成26年6月25日,東京都 新宿区 新宿 三丁目,35.69122695922852,139.7035675048828,시신 발견
348,新宿区,東京都新宿区新宿三丁目175カワセビル屋上↓,飛び降り自殺,平成20年3月2日,東京都 新宿区 新宿 三丁目,35.69122695922852,139.7035675048828,뛰어내리 자살
349,新宿区,東京都新宿区新宿三丁目181,男性飛び降り自殺,平成18年9月4日,東京都 新宿区 新宿 三丁目,35.69122695922852,139.7035675048828,남자애들 뛰어내리 자살
350,新宿区,東京都新宿区新宿三丁目326,清掃業者が転落して死亡,2011年ごろ,東京都 新宿区 新宿 三丁目,35.69122695922852,139.7035675048828,청소부가 넘어져서 사망
351,新宿区,東京都新宿区新宿三丁目135,ビルとビルの間で死体発見 ．,平成30年10月15日,東京都 新宿区 新宿 三丁目,35.69122695922852,139.7035675048828,빌과 빌딩 사이에서 시체 발견!
352,台東区,東京都台東区東上野六丁目81鍋谷ビル1階,火災による死亡,令和2年1月5日,東京都 台東区 東上野 六丁目,35.71330642700195,139.78407287597656,화재로 인한 사망
353,台東区,東京都台東区東上野四丁目1012 Log上野駅前,Log上野駅前903号室病死（死後時間経過）,2018年夏,東京都 台東区 東上野 四丁目,35.71397399902344,139.7804412841797,Log 우에노역 앞 903호실 사망!사후 시간이 경과했다
354,台東区,東京都台東区東上野五丁目215 ジェイパーク上野アクシス,"5階 西向き2LDK（LDK147帖、洋室63帖、洋室53帖、洋室45帖） 専有面積7415㎡ バルコニー面積497㎡ 価格6480万円 管理費等14760円 修繕積立金14910円
告知事項あり",令和4年8月4日,東京都 台東区 東上野 五丁目,35.71348190307617,139.7820587158203,5층 서쪽 BBB1D(DLKD) : LDKD
355,台東区,東京都台東区東上野六丁目124,白骨死体,平成29年5月19日,東京都 台東区 東上野 六丁目,35.71330642700195,139.78407287597656,백골사체
356,台東区,東京都台東区東上野六丁目126,熱中症による死亡,平成19年8月12日,東京都 台東区 東上野 六丁目,35.71330642700195,139.78407287597656,열사병에 의한 사망
357,台東区,東京都台東区東上野三丁目234,飛び降り自殺,平成28年6月14日,東京都 台東区 東上野 三丁目,35.710777282714844,139.78018188476562,뛰어내리 자살
358,台東区,東京都台東区東上野三丁目365 ホテル大泉,1階2号室 感電死,平成21年10月1日,東京都 台東区 東上野 三丁目,35.710777282714844,139.78018188476562,1층 2호실감전사
359,台東区,東京都台東区東上野四丁目79,身元不明の男性遺体発見,平成22年12月22日,東京都 台東区 東上野 四丁目,35.71397399902344,139.7804412841797,신원불명의 남성 시체 발견
360,台東区,東京都台東区東上野四丁目122,8階で30歳男性病死発見時、死後数日経過してた模様,令和2年6月10日,東京都 台東区 東上野 四丁目,35.71397399902344,139.7804412841797,8층에서 30세 남성 사망 발견시 사망 며칠 경과한 모양.
361,台東区,東京都台東区東上野六丁目28 サウナホテルニュー大泉,4階トイレ 死体発見,平成19年1月10日,東京都 台東区 東上野 六丁目 28番,35.71490859985352,139.78451538085938,4층 화장실 시체 발견
362,台東区,東京都台東区上野七丁目95,転落死,平成27年11月29日,東京都 台東区 上野 七丁目,35.715877532958984,139.77926635742188,회전사
363,台東区,東京都台東区東上野4ｰ4ｰ9,13階 死後3ヶ月後異臭で発見される,2015年9月,東京都 台東区 東上野 四丁目,35.71397399902344,139.7804412841797,13층 사망 후 3개월 후 이학적에서 발견된다.
364,台東区,東京都台東区東上野五丁目165 （仮称）三正東上野ビル,新築工事現場2階エレベーターホール 50～70歳男性の白骨化死体発見,平成10年3月19日,東京都 台東区 東上野 五丁目,35.71348190307617,139.7820587158203,신축 공사 현장 2층 엘리베이터 홀에서 70세 남성의 백골화 시신 발견
365,台東区,東京都台東区上野七丁目92,"ル・リオン上野ステーションコート
病死（死後数日間放置）",2012年頃,東京都 台東区 上野 七丁目,35.715877532958984,139.77926635742188,르 리옹 우에노 스테이트 코트(生 ) 사망!사후 며칠간 방치
366,台東区,東京都台東区東上野三丁目1211,飛び降り,平成27年1月12日,東京都 台東区 東上野 三丁目,35.710777282714844,139.78018188476562,비옷
367,台東区,東京都台東区台東四丁目2915 ４０２号室,脳梗塞による孤高死。単身赴任中に死去,平成26年6月23日,東京都 台東区 台東 四丁目,35.70659637451172,139.7794189453125,뇌경색으로 인한 고공 사망. 단신 부임 중에 사망
368,台東区,東京都台東区東上野二丁目62パーク・キューブ上野705,殺人,平成21年2月25日,東京都 台東区 東上野 二丁目,35.70980453491211,139.778564453125,살인사
369,台東区,東京都台東区台東四丁目266,首吊り,令和2年2月12日,東京都 台東区 台東 四丁目,35.70659637451172,139.7794189453125,목살
370,台東区,東京都台東区元浅草二丁目212,302の住民が死亡,2020年10月,東京都 台東区 元浅草 二丁目,35.710166931152344,139.78384399414062,282명의 주민이 사망.
371,台東区,東京都台東区東上野二丁目2512,飛び降り,平成31年2月12日,東京都 台東区 東上野 二丁目,35.70980453491211,139.778564453125,비옷
372,台東区,東京都台東区元浅草一丁目38,飛び降り自殺,令和4年7月6日,東京都 台東区 元浅草 一丁目,35.70811080932617,139.78387451171875,뛰어내리 자살
373,台東区,東京都台東区元浅草二丁目78ツクバホテル713,硫化水素自殺,平成21年5月10日,東京都 台東区 元浅草 二丁目,35.710166931152344,139.78384399414062,유황수소 자살
374,台東区,東京都台東区東上野一丁目268,仮眠室にて病死,2015年頃,東京都 台東区 東上野 一丁目,35.708011627197266,139.77914428710938,수면실에서 병살
375,台東区,東京都台東区花川戸一丁目136,共用部外階段より投身自殺,2008年以前,東京都 台東区 花川戸 一丁目,35.71219253540039,139.79942321777344,공용부외계단보다 투신 자살
376,台東区,東京都台東区浅草二丁目331スーパーホテル浅草703,死体発見,平成25年12月7日,東京都 台東区 浅草 二丁目,35.714942932128906,139.7954559326172,시체 발견
377,台東区,東京都台東区花川戸一丁目36 花川戸ビル,首吊り自殺,平成19年1月27日,東京都 台東区 花川戸 一丁目,35.71219253540039,139.79942321777344,목살 자살
378,台東区,東京都台東区雷門二丁目178,"修繕工事時足場首吊り自殺
1Fにて",2007年,東京都 台東区 雷門 二丁目,35.709716796875,139.7965545654297,수선공사시 발판골절 자살 1F
379,台東区,東京都台東区花川戸一丁目1511,死体発見,平成22年12月19日,東京都 台東区 花川戸 一丁目,35.71219253540039,139.79942321777344,시체 발견
380,墨田区,東京都墨田区向島二丁目3,孤高死。発見が遅れ、液状化。民泊。,2010年7月,東京都 墨田区 向島 二丁目 3番,35.71382141113281,139.80580139160156,"고고사. 발견이 늦어지고, 액체화. 민박."
381,墨田区,東京都墨田区向島一丁目126,４階男性孤高死発見,令和2年6月21日,東京都 墨田区 向島 一丁目,35.71177291870117,139.8046112060547,2층 남성 고고사 발견
382,墨田区,東京都墨田区向島一丁目97 ホタカリュミエール・イワタ,"301号室 角部屋
告知事項あり",令和4年6月1日,東京都 墨田区 向島 一丁目,35.71177291870117,139.8046112060547,301호실 각 방 고지사항
383,墨田区,東京都墨田区向島一丁目65 ハイズ墨田パークレジデンス,"803号室 角部屋 分譲賃貸
心理的瑕疵有",令和4年10月16日,東京都 墨田区 向島 一丁目,35.71177291870117,139.8046112060547,803호실 각 방 임대료 임대적치유리한
384,墨田区,東京都墨田区向島二丁目26,発見が遅れ死亡日わからず。一部腐敗,平成28年5月28日から29日の間,東京都 墨田区 向島 二丁目,35.715145111083984,139.80682373046875,발견이 늦어 사망 날짜를 알 수 없음.
385,墨田区,東京都墨田区吾妻橋一丁目2320 墨田区役所,敷地内 年齢50歳位男性の死体発見,平成22年7月10日,東京都 墨田区 吾妻橋 一丁目,35.70968246459961,139.80039978027344,부지내 연령 50세 이상 남성의 시체 발견
386,墨田区,東京都墨田区東駒形一丁目32 部屋番号不明,飛び降り自殺,平成30年5月3日,東京都 墨田区 東駒形 一丁目,35.7061882019043,139.79827880859375,뛰어내리 자살
387,墨田区,東京都墨田区吾妻橋一丁目2330 URリバーピア吾妻橋ライフタワー1907↓,飛び降りて死亡,平成30年10月4日,東京都 墨田区 吾妻橋 一丁目,35.70968246459961,139.80039978027344,뛰어내려서 사망
388,墨田区,東京都墨田区吾妻橋一丁目16 ドウェルアヅマ,"4階 南向き1K 専有面積2975㎡ 賃料85万円 管理費等5000円
告知事項あり
新規室内リフォーム済み、キッチンシンク・エアコン新品",令和4年8月25日,東京都 墨田区 吾妻橋 一丁目 16番,35.709251403808594,139.8002471923828,4층 남쪽에 1K전용적면적 1500만원 임대료 7800만원 관리
389,墨田区,東京都墨田区吾妻橋二丁目51,詳細の日付は不明だが5階の部屋で住人が孤高死してる,令和元年10月1日,東京都 墨田区 吾妻橋 二丁目,35.70957565307617,139.8031768798828,자세한 날짜는 알 수 없지만 5층 방에서 주민이 고독사하고 있다.
390,墨田区,東京都墨田区東駒形三丁目1613 本所シティハウス,"2階 南向き2DK（洋室5帖、和室6畳、DK86帖） 専有面積4834㎡
告知事項有り
定期借家（1年）",令和4年5月18日,東京都 墨田区 東駒形 三丁目,35.706668853759766,139.80308532714844,"2층 남향 2DK(양방 5칸, 일본식 6칸, DK 86칸,"
391,豊島区,東京都豊島区南池袋二丁目3016,心理的瑕疵物件,令和3年11月,東京都 豊島区 南池袋 二丁目,35.726524353027344,139.7150115966797,심리적 하자물건
392,豊島区,東京都豊島区南池袋二丁目917,"11階あたりの部屋から飛び降り自殺
1階の裏口に落下",2013年1月ごろ,東京都 豊島区 南池袋 二丁目,35.726524353027344,139.7150115966797,11층쯤 방에서 뛰어내리고 자살 1층 뒷문으로 추락
393,豊島区,東京都豊島区南池袋二丁目917ニッシンパレステージ池袋804,男性の変死体発見,2018年６月,東京都 豊島区 南池袋 二丁目,35.726524353027344,139.7150115966797,남성의 변사체 발견
394,豊島区,東京都豊島区南池袋二丁目818,飛び降り自殺,平成27年8月30日,東京都 豊島区 南池袋 二丁目,35.726524353027344,139.7150115966797,뛰어내리 자살
395,豊島区,東京都豊島区南池袋二丁目86,心理的瑕疵物件あり8階,不明,東京都 豊島区 南池袋 二丁目,35.726524353027344,139.7150115966797,심리적 하자물건이 8층
396,豊島区,東京都豊島区南池袋二丁目4321,三階の一室にて自殺,2012年前後,東京都 豊島区 南池袋 二丁目,35.726524353027344,139.7150115966797,3층 한실에서 자살
397,豊島区,東京都豊島区東池袋一丁目2522,"生徒が飛び降り自殺

2013年には中1女子生徒が電車に飛び込み自殺",2007年,東京都 豊島区 東池袋 一丁目,35.73137283325195,139.71530151367188,학생이 뛰어내리고 자살한 2013년에는 중학생이 전철로 뛰어들어 자살했다
398,豊島区,東京都豊島区南池袋二丁目261ホテルティファニー601,死体遺棄,平成17年11月11日,東京都 豊島区 南池袋 二丁目,35.726524353027344,139.7150115966797,시체유채
399,渋谷区,東京都渋谷区神南一丁目417,死体発見,平成22年2月24日,東京都 渋谷区 神南 一丁目,35.66312789916992,139.7003631591797,시체 발견
400,渋谷区,東京都渋谷区宇田川町103,飛び降り自殺,平成27年8月21日,東京都 渋谷区 宇田川町,35.66209030151367,139.69741821289062,뛰어내리 자살
401,渋谷区,東京都渋谷区神南一丁目818クオリア神南フラッツ建設現場11階↓,転落死,平成19年8月5日,東京都 渋谷区 神南 一丁目,35.66312789916992,139.7003631591797,회전사
402,渋谷区,東京都渋谷区神南一丁目2013,10階非常階段から落下して死亡,2021年前半,東京都 渋谷区 神南 一丁目,35.66312789916992,139.7003631591797,10층 비상계단에서 낙하하여 사망
403,港区,愛知県名古屋市港区港陽一丁目150ファミール港陽ベイレジデンス9階東端の部屋,死体発見,平成30年10月29日,愛知県 名古屋市 港区 港陽 一丁目,35.10203552246094,136.88824462890625,시체 발견
404,港区,愛知県名古屋市港区港楽一丁目1−１０ 市営港楽荘1棟,自殺による転落死,平成26年5月12日,愛知県 名古屋市 港区 港楽 一丁目 1番 10号,35.10519027709961,136.88845825195312,자살로 인한 추락사
405,港区,愛知県名古屋市港区港楽一丁目110 市営港楽荘1棟 201,事故住宅,不明,愛知県 名古屋市 港区 港楽 一丁目,35.105709075927734,136.88694763183594,사고주택
406,港区,愛知県名古屋市港区港楽一丁目110 市営港楽荘1棟,2名の死体発見,令和4年11月3日,愛知県 名古屋市 港区 港楽 一丁目,35.105709075927734,136.88694763183594,2명의 시체 발견
407,港区,愛知県名古屋市港区港楽二丁目1118,自殺,令和2年11月3日,愛知県 名古屋市 港区 港楽 二丁目,35.103599548339844,136.88583374023438,자살
408,港区,愛知県名古屋市港区港陽一丁目1,今日道を通ったら団地の一室で火災が発生していた。かなり燃えていたので中の人はなくなっているかもしれない。そのあとガスの緊急車両が通っていったからガス漏れかも,令和2年9月6日,愛知県 名古屋市 港区 港陽 一丁目 1番,35.10269927978516,136.8885040283203,오늘 길을 지나니 단지 한 방에 화재가 발생했어요. 많이 타있어서 안 사람은
409,世田谷区,東京都世田谷区梅丘三丁目125メゾン吉田,孤高死,平成23年5月頃,東京都 世田谷区 梅丘 三丁目,35.65119934082031,139.65658569335938,고고사
410,世田谷区,東京都世田谷区若林四丁目394,３０７号室の居室にて自殺,20118月,東京都 世田谷区 若林 四丁目,35.6463737487793,139.65713500976562,1호실의 거실에서 자살
411,世田谷区,東京都世田谷区若林五丁目188 エステート増永 201号室,"腐乱死。
体液が玄関扉からも溢れ、一帯が強烈な臭いでした。",令和3年7月,東京都 世田谷区 若林 五丁目,35.649009704589844,139.65731811523438,부패사.체가 문 문 문에서도 넘쳐나 일대가 강렬한 냄새였습니다.
412,世田谷区,東京都世田谷区梅丘三丁目137,火災による死亡,平成23年1月3日,東京都 世田谷区 梅丘 三丁目,35.65119934082031,139.65658569335938,화재로 인한 사망
413,世田谷区,東京都世田谷区世田谷三丁目2320,屋上より女性が飛び降り自殺,平成29年1月18日,東京都 世田谷区 世田谷 三丁目,35.64533233642578,139.6495361328125,옥상에서 여자가 뛰어내리고 자살
414,世田谷区,東京都世田谷区世田谷三丁目118,１２階から若いカップル飛び降り（外部）,令和4年7月9日,東京都 世田谷区 世田谷 三丁目,35.64533233642578,139.6495361328125,2층에서 젊은 커플이 뛰어내리는... 외부?
415,世田谷区,東京都世田谷区世田谷四丁目173,男性が自殺,15年ほど前,東京都 世田谷区 世田谷 四丁目,35.64563751220703,139.6521453857422,남자가 자살
416,世田谷区,東京都世田谷区若林四丁目1214コーポシンエイ202,"老人が孤高死をし、死後1か月ほどでやっと発見された。
部屋に酷い死臭が染みついてる",2020年9月13日,東京都 世田谷区 若林 四丁目,35.6463737487793,139.65713500976562,노인이 고생을 하고 사망 후 한 달 정도 만에야 발견됐다. 방에 심한 사내가
417,世田谷区,東京都世田谷区若林四丁目1627,死体発見,最近,東京都 世田谷区 若林 四丁目,35.6463737487793,139.65713500976562,시체 발견
418,世田谷区,東京都世田谷区若林三丁目3010,火災による死亡,令和4年2月5日,東京都 世田谷区 若林 三丁目,35.64398193359375,139.65811157226562,화재로 인한 사망
419,世田谷区,東京都世田谷区若林四丁目2111,"母屋隣のアパート（２階部分）で孤高死
強烈な臭いでした",令和３年７月頃,東京都 世田谷区 若林 四丁目,35.6463737487793,139.65713500976562,마루 옆 아파트(층) 에서 고공사격 냄새였어요.
420,大田区,東京都大田区西蒲田七丁目23第2醍醐ビル6F,自殺,平成22年10月14日,東京都 大田区 西蒲田 七丁目 23番,35.56377410888672,139.7113494873047,자살
421,大田区,東京都大田区蒲田五丁目184,自殺か病死かは分からないがこのホテルの5F512号室で人が亡くなっていたらしい。朝起きたらちょうど警察が来ていて遺体を運び出そうとしていた場面に遭遇した。,令和5年2月26日,東京都 大田区 蒲田 五丁目,35.561767578125,139.7183380126953,자살인지 사망인지는 모르지만 이 호텔 5F52호실에서 사람이 돌아가셨다고 한다.
422,大田区,東京都大田区蒲田五丁目119 404,ガス自殺,平成24年7月28日,東京都 大田区 蒲田 五丁目,35.561767578125,139.7183380126953,가스 자살
423,大田区,東京都大田区西蒲田七丁目68 グランデュオ蒲田,駐車場 死体発見,平成21年5月15日,東京都 大田区 西蒲田 七丁目 68番,35.56243133544922,139.71542358398438,주차장 시체 발견
424,大田区,東京都大田区蒲田五丁目131,3階女子便所 死体発見,平成22年7月28日,東京都 大田区 蒲田 五丁目,35.561767578125,139.7183380126953,3층 여자 변소실 시체 발견
425,大田区,東京都大田区西蒲田八丁目2011,死体発見,平成27年,東京都 大田区 西蒲田 八丁目,35.56047821044922,139.7119903564453,시체 발견
426,大田区,東京都大田区蒲田五丁目4810 ハイライフ蒲田,"10階 角部屋
告知事項あり",令和4年10月16日,東京都 大田区 蒲田 五丁目,35.561767578125,139.7183380126953,10층 각 방 고지사항 있음.
427,大田区,東京都大田区蒲田五丁目502 スカイコート蒲田ガーデン,"7階 北向き1K（洋室6帖、K2帖） 専有面積2100㎡
心理的瑕疵有",令和3年11月26日,東京都 大田区 蒲田 五丁目,35.561767578125,139.7183380126953,"7층 북쪽으로 1K-K-룸 6칸, K-2칸(전유면"
428,大田区,東京都大田区西蒲田七丁目659,自殺,2年前,東京都 大田区 西蒲田 七丁目,35.56300735473633,139.71249389648438,자살
429,大田区,東京都大田区西蒲田八丁目21 西蒲田スカイハイツ,飛び降り自殺,2013年,東京都 大田区 西蒲田 八丁目 21番,35.56036376953125,139.71311950683594,뛰어내리 자살
430,中野区,東京都中野区新井二丁目311,住人ではなかった女の子が7階から駐車場へ飛び降り。,2000年1月,東京都 中野区 新井 二丁目,35.7120361328125,139.66290283203125,주민이 아니었던 여자가 7층에서 주차장으로 뛰어내렸다.
431,中野区,東京都中野区野方一丁目291アーバンアメニティ中野5階,自殺,2015年ごろ,東京都 中野区 野方 一丁目,35.711151123046875,139.65716552734375,자살
432,中野区,東京都中野区野方一丁目517,"本籍・住所・氏名・年齢不詳、男性、身長160センチメートル、中肉
上記の者は令和2年7月28日午後10時35分頃、東京都中野区野方1丁目5番17号中野ダイヤハイツ309において死亡の状態で発見されました。遺体は火葬に付し遺骨は保管してあります。心当たりの方は、当区健康福祉部生活援護課までお申し出ください。（官報号外第170号2021726）",令和2年7月28日,東京都 中野区 野方 一丁目,35.711151123046875,139.65716552734375,"본인이나 주소, 생년월일, 연령, 신장 미스터, 신장 160센티미터, 내용물은 레이와"
433,中野区,東京都中野区中野五丁目2416中野第二コーポ513号室,2007年に513号室の室内で旦那さんが介護疲れで首つり自殺,2007年,東京都 中野区 中野 五丁目,35.70785903930664,139.66893005371094,2007년에 51호실 실내에서 남편이 간병 피로로 목욕을 자살한
434,中野区,東京都中野区中野五丁目5112 ザ・パークハウス中野タワー,"1201号室 角部屋 分譲賃貸
告知事項有",令和4年9月3日,東京都 中野区 中野 五丁目,35.70785903930664,139.66893005371094,1201호실 각 방 임대료 임대 지적사항
435,中野区,東京都中野区中野五丁目373 ヒルトップ1,2階 202号室 203号室 心理的瑕疵有,平成30年11月8日,東京都 中野区 中野 五丁目,35.70785903930664,139.66893005371094,2층 202호실 203호실 심리적 하자유무
436,中野区,東京都中野区中野五丁目5112,某有名人の自殺,令和2年12月31日,東京都 中野区 中野 五丁目,35.70785903930664,139.66893005371094,모 유명인의 자살
437,中野区,東京都中野区中野五丁目3715 201,老人の孤独死,令和4年3月,東京都 中野区 中野 五丁目,35.70785903930664,139.66893005371094,노인의 고독사
438,中野区,東京都中野区新井一丁目93,このマンションが出来て間もなく某有名会社の中年男性が飛び降り自殺有り,平成20年4月7日,東京都 中野区 新井 一丁目,35.71207427978516,139.6673583984375,이 아파트가 생긴 지 얼마 안 되어 모 유명 회사의 중년 남성이 뛰어내리고 자살
439,中野区,東京都中野区中野五丁目5615,カウンターバー 店内で経営者首つり自殺,2014,東京都 中野区 中野 五丁目,35.70785903930664,139.66893005371094,카운터 바에서 경영자 수당 자살
440,中野区,東京都中野区中野五丁目677 プラザ中野,屋上から飛び降り自殺,平成30年6月2日,東京都 中野区 中野 五丁目,35.70785903930664,139.66893005371094,옥상에서 뛰어내리고 자살
441,中野区,東京都中野区中野五丁目685ドン・キホーテ中野駅前店地下1階,エレベータと壁に挟まれ死亡,平成23年11月5日,東京都 中野区 中野 五丁目,35.70785903930664,139.66893005371094,엘리베이터와 벽에 끼여 사망
442,中野区,東京都中野区中野五丁目3720  201or203,"コーポイーグル 2階の角部屋
下は草木が生えていてスペースが空いている
２階に住んでいた男性が飛び降り自殺をした
敷地内による自殺",平成26年10月16日,東京都 中野区 中野 五丁目,35.70785903930664,139.66893005371094,코퍼글 2층 방충망 아래는 초목이 자라고 공간이 비어 있는 1층에 살던 남자가
443,中野区,東京都中野区中野三丁目4317,６階から飛び降り自殺あり。,平成17年,東京都 中野区 中野 三丁目,35.7028923034668,139.663330078125,2층에서 뛰어내리고 자살도 있다.
444,中野区,東京都中野区中野三丁目422 メゾンダルブル,"106号室
告知事項あり",令和4年5月10日,東京都 中野区 中野 三丁目,35.7028923034668,139.663330078125,106호실 공지사항
445,中野区,東京都中野区中野三丁目2321 コーポ池田,2階 角部屋 心理的瑕疵あり 2018年6月内装一部リフォーム済み,平成30年4月22日,東京都 中野区 中野 三丁目,35.7028923034668,139.663330078125,2층 가방적용적하적 있어 2018년 6월 인테리어 일부 리모델링 완료
446,中野区,東京都中野区中野三丁目2330 BEROOM中野,"1階 角部屋 南向き1LDK（LDK88帖、洋室5帖） 専有面積3502㎡
賃料114万円 管理費等10000円
告知事項あり",令和4年7月10日,東京都 中野区 中野 三丁目,35.7028923034668,139.663330078125,"1층 각 방 중앙 남향 1LDK(LDKQ88편, 양"
447,中野区,東京都中野区中野三丁目409清風荘10,火災による死亡,平成24年7月2日,東京都 中野区 中野 三丁目,35.7028923034668,139.663330078125,화재로 인한 사망
448,中野区,東京都中野区中野三丁目5013,首吊り自殺,平成23年3月8日,東京都 中野区 中野 三丁目,35.7028923034668,139.663330078125,목살 자살
449,杉並区,東京都杉並区高円寺南五丁目141,102 自殺,20150729,東京都 杉並区 高円寺 南五丁目,35.703514099121094,139.65794372558594,102 자살
450,中野区,東京都中野区中野三丁目422メゾンダルブル203,火災による死亡,平成25年2月17日,東京都 中野区 中野 三丁目,35.7028923034668,139.663330078125,화재로 인한 사망
451,中野区,東京都中野区中野三丁目348藤和シティコープ中野501,火災による死亡,平成20年12月1日,東京都 中野区 中野 三丁目,35.7028923034668,139.663330078125,화재로 인한 사망
452,中野区,東京都中野区中野三丁目3012マンション中野ソレイユ9F↓,転落死,平成23年1月9日,東京都 中野区 中野 三丁目,35.7028923034668,139.663330078125,회전사
453,中野区,東京都中野区寿荘,"男性老人孤高死
死後3ヶ月後に発見される。",2010年,東京都 中野区,35.70726776123047,139.6637420654297,남성 노숙 사망 후 3개월 만에 발견된다.
454,中野区,東京都中野区中野二丁目1416,3F男子サウナ室内で死亡,平成30年8月3日,東京都 中野区 中野 二丁目,35.70412826538086,139.66888427734375,3F 남자 사우나 실내에 사망
455,中央区,兵庫県神戸市中央区山本通二丁目111,スーパーホテル709号室にて死体発見,平成19年7月26日,兵庫県 神戸市 中央区 山本通 二丁目,34.69810104370117,135.18954467773438,슈퍼호텔 719호실에서 시체 발견
456,中央区,兵庫県神戸市中央区加納町四丁目815,元従業員が飛び降り自殺,2015年頃,兵庫県 神戸市 中央区 加納町 四丁目,34.69507598876953,135.1932830810547,전 종업원이 뛰어내리고 자살
457,中央区,兵庫県神戸市中央区二宮町四丁目810 KDXレジデンス三宮自転車置き場,首吊り自殺,～5年前,兵庫県 神戸市 中央区 二宮町 四丁目,34.69890213012695,135.19508361816406,목살 자살
458,中央区,兵庫県神戸市中央区二宮町二丁目1323,絞殺,平成30年9月15日,兵庫県 神戸市 中央区 二宮町 二丁目,34.699851989746094,135.19715881347656,컷살
459,中央区,兵庫県神戸市中央区布引町二丁目27,405号室 告知事項あり物件,過去2年以内,兵庫県 神戸市 中央区 布引町 二丁目,34.70074462890625,135.19464111328125,405호실 공지사항 있는 물건
460,中央区,兵庫県神戸市中央区琴ノ緒町二丁目35   7階,20代女性の首つり,2015年1月,兵庫県 神戸市 中央区 琴ノ緒町 二丁目,34.69766998291016,135.19737243652344,20대 여성 목살
461,中央区,兵庫県神戸市中央区二宮町二丁目1318,402号室の女性が屋上8階から敷地内飛び降り,2006年,兵庫県 神戸市 中央区 二宮町 二丁目,34.699851989746094,135.19715881347656,402호실의 여성이 옥상 8층에서 부지내내로 뛰어내렸다
462,中央区,兵庫県神戸市中央区二宮町三丁目2番6号山本文化203号,"変色死体発見
httpswwwcitykobelgjpdocuments103693679pdf",令和2年8月31日,兵庫県 神戸市 中央区 二宮町 三丁目 2番 6号,34.69825744628906,135.1963348388672,색조피부 발견 http whischi cook go be
463,中央区,兵庫県神戸市中央区加納町三丁目131,女性9Ｆより転落死,令和3年12月2日,兵庫県 神戸市 中央区 加納町 三丁目,34.69773483276367,135.19305419921875,여성: 회전사고가 났다
464,中央区,兵庫県神戸市中央区二宮町2丁目620 コスモ三宮アーバンスクエア 802号,告知事項あり,不明,兵庫県 神戸市 中央区 二宮町 二丁目,34.699851989746094,135.19715881347656,공고사항
465,中央区,兵庫県神戸市中央区中山手通一丁目2015,マンションから遺体運んでいくのを見た,令和3年8月26日,兵庫県 神戸市 中央区 中山手通 一丁目,34.69609451293945,135.191650390625,아파트에서 시신을 옮겨가는 것을 보았다.
466,中央区,兵庫県神戸市中央区琴ノ緒町二丁目76アニメイト神戸↓,転落死,平成22年10月10日,兵庫県 神戸市 中央区 琴ノ緒町 二丁目,34.69766998291016,135.19737243652344,회전사
467,中央区,兵庫県神戸市中央区琴ノ緒町五丁目32,男性が死亡。原因は心臓麻痺。,3年前くらい,兵庫県 神戸市 中央区 琴ノ緒町 五丁目,34.69615936279297,135.19479370117188,남자가 사망. 원인은 심장마비로 인한.
468,中央区,兵庫県神戸市中央区雲井通八丁目12三宮ターミナルホテル,"女性飛び降り自殺
１０階の部屋から４階部分にせり出した屋根に転落",平成22年8月7日,兵庫県 神戸市 中央区 雲井通 八丁目,34.69407272338867,135.1951446533203,여성 추락 자살이 4층 방에서 1층 방으로 빠져나온 지붕으로 추락
469,中央区,兵庫県神戸市中央区御幸通八丁目12,ＯＰＡ前さんちかの多目的トイレ内で２７歳男性がヘリウムガスで自殺,平成24年9月9日,兵庫県 神戸市 中央区 御幸通 八丁目,34.69214630126953,135.19570922851562,이전 세대의 다목적 화장실 내 16세 남성이 헤리알가스 자살.
470,中央区,兵庫県神戸市中央区布引町四丁目212,飛び降り,7年前頃,兵庫県 神戸市 中央区 布引町 四丁目,34.695274353027344,135.1940460205078,비옷
471,中央区,兵庫県神戸市中央区小野柄通六丁目1−１７,ラウンドワン三宮店の女子トイレで産まれたばかりの胎児が放棄されてた事件がありました。,7年くらい前だったと思う,兵庫県 神戸市 中央区 小野柄通 六丁目 1番 17号,34.6941032409668,135.197265625,라운드 원미야마(ラ운드 원미야) 점 화장실에서 갓 태어난 태
472,中央区,兵庫県神戸市中央区雲井通六丁目115,サラリーマン飛び降り,2002,兵庫県 神戸市 中央区 雲井通 六丁目,34.694671630859375,135.19662475585938,샐러리맨십
473,中央区,兵庫県神戸市中央区三宮町1丁目717,2017年 4F ヘリウム自殺,2017年,兵庫県 神戸市 中央区 三宮町 一丁目,34.69175720214844,135.19329833984375,2017년 4F 헬륨 자살
474,中央区,兵庫県神戸市中央区琴ノ緒町五丁目415 コインロッカー0020番,コインロッカー下段右から2番目から乳児の死体を発見,平成25年7月26日,兵庫県 神戸市 中央区 琴ノ緒町 五丁目,34.69615936279297,135.19479370117188,코인 락커 하단 오른쪽에서 두 번째에서 유아의 시체를 발견.
475,中央区,兵庫県神戸市中央区旭通二丁目1024 2階,火災による死亡,令和4年7月28日,兵庫県 神戸市 中央区 旭通 二丁目,34.69775390625,135.1998291015625,화재로 인한 사망
476,中央区,兵庫県神戸市中央区北本町通六丁目414,同区内の女性が飛び降り自殺。,平成28年4月17日,兵庫県 神戸市 中央区 北本町通 六丁目,34.696414947509766,135.20323181152344,이 구내 여종업원이 뛰어내리고 자살.
477,中央区,兵庫県神戸市中央区八雲通5丁目69,告知事項あり,不明,兵庫県 神戸市 中央区 八雲通 五丁目,34.69966506958008,135.2028350830078,공고사항
478,中央区,兵庫県神戸市中央区雲井通三丁目6,自殺,2001年3月以降,兵庫県 神戸市 中央区 雲井通 三丁目 6番,34.69660186767578,135.19956970214844,자살
479,中央区,兵庫県神戸市中央区雲井通一丁目五丁目12701,50代の女性が飛び降りに可能性,平成28年11月4日,兵庫県 神戸市 中央区 雲井通 一丁目,34.69688415527344,135.2015838623047,50대 여성이 뛰어내리기에 가능
480,中央区,兵庫県神戸市中央区日暮通六丁目317川越日暮ハイツ101,火災による死亡,平成26年6月24日,兵庫県 神戸市 中央区 日暮通 六丁目,34.69828414916992,135.20201110839844,화재로 인한 사망
481,中央区,兵庫県神戸市中央区旭通一丁目11,１階が組事務所。暴力団員同士の殺人事件あり。,10年程前,兵庫県 神戸市 中央区 旭通 一丁目,34.69825744628906,135.2006378173828,1층이 조 사무실. 폭력단원들끼리 살인사건 있다.
482,中央区,兵庫県神戸市中央区二宮町一丁目132プレミアムコート神戸三宮↓, 飛び降り自殺,平成24年,兵庫県 神戸市 中央区 二宮町 一丁目,34.7001838684082,135.19869995117188,뛰어내리 자살
483,中央区,兵庫県神戸市中央区旭通四丁目13シティタワー神戸三宮 上階↓32階ベランダ,転落死,令和4年12月22日,兵庫県 神戸市 中央区 旭通 四丁目,34.696571350097656,135.19784545898438,회전사
484,中央区,兵庫県神戸市中央区御幸通二丁目28ドーミー三宮,"転落死。
20日午前9時30分頃、神戸市中央区御幸通2のマンション（11階建て）敷地内で、若い男性血を流して倒れているのを、管理人の男性が見つけ、110番した。男性は全身を強く打っており、死亡していた。葺合署によると、マンションの住人とみられ、防犯カメラの映像などから、転落したのは夜間とみられる。6階非常階段からフロア通路に入ろうとしたが、扉に鍵がかかっており、手すりを飛び越え入ろうとした際、転落した可能性があるという。",令和元年7月20日,兵庫県 神戸市 中央区 御幸通 二丁目,34.694725036621094,135.20169067382812,추락사 20일 오전 9시 30분경 고베시 츄오구 미쓰케
485,中央区,兵庫県神戸市中央区磯上通四丁目112,男性遺体発見,平成20年9月6日,兵庫県 神戸市 中央区 磯上通 四丁目,34.692840576171875,135.20013427734375,남성 시체 발견
486,中央区,兵庫県神戸市中央区小野柄通二丁目15,腐乱死体,２０００,兵庫県 神戸市 中央区 小野柄通 二丁目,34.69552230834961,135.20106506347656,부패사체
487,中央区,兵庫県神戸市中央区御幸通三丁目24 コスモプラザ三宮 9階北西向き住戸,心理的瑕疵有,時期不明,兵庫県 神戸市 中央区 御幸通 三丁目,34.694366455078125,135.20054626464844,심리적 하자유무
488,中央区,兵庫県神戸市中央区雲井通二丁目11,"レーベン三宮807号室
老人孤高死。翌日発見
当該事項を告知せず売り出す可能性有り",2017年中,兵庫県 神戸市 中央区 雲井通 二丁目,34.696510314941406,135.20059204101562,레벤 산노미야 807호 노인 고고 사망. 다음날 발견 해당 사항
489,中央区,兵庫県神戸市中央区南本町通六丁目1,飛び降り自殺 同区内の男性。,２０１０,兵庫県 神戸市 中央区 南本町通 六丁目 1番,34.695884704589844,135.20401000976562,뛰어내리는 자살동부남.
490,中央区,兵庫県神戸市中央区御幸通三丁目二丁目41003,2018年2月 1003号室 老人の遺体が見つかる,2018年,兵庫県 神戸市 中央区 御幸通 三丁目 2番,34.694488525390625,135.2004852294922,2018년 2월 1003호실 노인의 시신이 발견됩니다
491,中央区,兵庫県神戸市中央区磯上通二丁目232,"簡易宿泊施設「磯上荘」
火災により宿泊客が死亡",平成24年1月25日,兵庫県 神戸市 中央区 磯上通 二丁目,34.693660736083984,135.20233154296875,간이 숙박시설 '조이상장' 화재로 인해 투숙객이 사망.
492,中央区,兵庫県神戸市中央区御幸通三丁目121ライオンズマンション三宮,"部屋号数はわからないが、首吊りあり。
安い賃貸料の部屋は注意",2010年以前,兵庫県 神戸市 中央区 御幸通 三丁目,34.694366455078125,135.20054626464844,"방 호수는 모르겠지만, 목줄 있고 저렴한 임대료 방은 주의."
493,中央区,兵庫県神戸市中央区御幸通二丁目23,深夜、15階エレベータホールからの飛び降り自殺（男性）,令和3年3月28日,兵庫県 神戸市 中央区 御幸通 二丁目,34.694725036621094,135.20169067382812,심야 15층 엘리베이터 홀에서 뛰어내리는 자살!
494,中央区,兵庫県神戸市中央区北本町通六丁目113,心理的瑕疵,2005,兵庫県 神戸市 中央区 北本町通 六丁目,34.696414947509766,135.20323181152344,심리적 하자
495,中央区,兵庫県神戸市中央区御幸通三丁目125,ラコート三宮 5階 告知事項物件心理的瑕疵物件,平成28年9月1日,兵庫県 神戸市 中央区 御幸通 三丁目,34.694366455078125,135.20054626464844,라코타 미야코지 쥬오구치 사건물.1심적 하자
496,中央区,兵庫県神戸市中央区御幸通六丁目130,"マンションの住民ではないと思われる身元不明の方が深夜に飛び降り自殺
明け方に発見された",令和4年11月3日,兵庫県 神戸市 中央区 御幸通 六丁目,34.69306945800781,135.19772338867188,아파트 주민이 아닌 신원이 밝혀지지 않은 신원이 심야에 뛰어내려가 자살한 것으로 밝혀
497,北区,大阪府堺市北区新金岡町四丁目28,３階 男性死亡,令和4年4月6日,大阪府 堺市 北区 新金岡町 四丁,34.56818389892578,135.5194091796875,2층 남성 사망
498,北区,大阪府堺市北区新金岡町5丁13病院内,看護士から虐待を受けた老人が死亡,平成21年9月15日,大阪府 堺市 北区 新金岡町 五丁,34.56324005126953,135.52120971679688,간호사로부터 학대를 받은 노인이 사망
499,北区,大阪府堺市北区新金岡町四丁目51,"飛び降り自殺
２回目",令和5年3月8日,大阪府 堺市 北区 新金岡町 四丁,34.56818389892578,135.5194091796875,뛰어내리는 자살이 두 번째
500,北区,大阪府堺市北区金岡町704,6号棟503号室。心理的瑕疵有。,2022年3月頃,大阪府 堺市 北区 金岡町 704番地,34.56261444091797,135.5173797607422,6호동 503호실. 심리적 하자.
501,北区,大阪府堺市北区新金岡町5丁15,"アルティス新金岡
2000年に建築されたマンションですが、2000年〜2005年の間？に飛び降り自殺がありました。

飛び降り自殺",平成29年1月6日,大阪府 堺市 北区 新金岡町 五丁,34.56324005126953,135.52120971679688,알티스카 신카네카 2000년에 지어진 아파트인데 2000년~2005년 사이에 1층으로 뛰어
502,葛飾区,東京都葛飾区立石五丁目2312,告知事項あり,20210426,東京都 葛飾区 立石 五丁目,35.743995666503906,139.8454132080078,공고사항
503,葛飾区,東京都葛飾区立石三丁目309,"コーポ山元102号室｡告知事項あり
httpswwwhomescojpchintaib37011320094900",不明,東京都 葛飾区 立石 三丁目,35.7396125793457,139.84414672851562,코퍼원 야마노테 9호실: 공지사항 없음
504,葛飾区,東京都葛飾区立石三丁目2718 グリュックスハイム,"2階 北向きワンルーム（洋室65帖） 専有面積1736㎡ 賃料5万円
告知事項あり",令和4年8月5日,東京都 葛飾区 立石 三丁目,35.7396125793457,139.84414672851562,2층 북쪽 원룸(양실 65센티미터/전유면) 임대료 5만엔
505,葛飾区,東京都葛飾区立石七丁目6,火災による死亡,令和4年3月18日,東京都 葛飾区 立石 七丁目 6番,35.740806579589844,139.84913635253906,화재로 인한 사망
506,葛飾区,東京都葛飾区立石四丁目314,火災による死亡,平成25年5月7日,東京都 葛飾区 立石 四丁目,35.74009323120117,139.84725952148438,화재로 인한 사망
507,杉並区,東京都杉並区阿佐谷南三丁目77,一階にて独居男性の硫化水素による自殺未遂発生,20112012？,東京都 杉並区 阿佐谷 南三丁目,35.702178955078125,139.63282775878906,일층에서 독거 남성 유황소리에 의한 자살미수 발생
508,杉並区,東京都杉並区阿佐谷南三丁目620第一赤松荘,独居の老人が孤高死,2016年頃,東京都 杉並区 阿佐谷 南三丁目,35.702178955078125,139.63282775878906,독거 노인이 고독사
509,杉並区,東京都杉並区成田東五丁目3414 住友南阿佐ヶ谷シティハウス,"404号室 角部屋
告知事項有
2022年8月室内スケルトンリフォーム済",令和4年9月9日,東京都 杉並区 成田 東五丁目,35.699249267578125,139.6319122314453,440호실 각 방안내사항유니화이트 2022년 8월 실내스켈
510,杉並区,東京都杉並区成田東五丁目3022,火災による死亡,平成26年5月22日,東京都 杉並区 成田 東五丁目,35.699249267578125,139.6319122314453,화재로 인한 사망
511,杉並区,東京都杉並区阿佐谷南三丁目211 マナーテラス,"2階 201号室 角部屋 2018年12月21日 告知事項あり
2018年12月室内フルリフォーム システムキッチンや温水洗浄便座、お風呂など水回りの設備は新品です。",平成30年12月21日,東京都 杉並区 阿佐谷 南三丁目,35.702178955078125,139.63282775878906,2층 205호실 가방콕 2018년 12월 21일 공지사항 있음 2018년
512,杉並区,東京都杉並区成田東五丁目4210 阿佐ケ谷陵雲閣マンション,10階 心理的瑕疵あり,不明,東京都 杉並区 成田 東五丁目,35.699249267578125,139.6319122314453,10층 심리적 하자 있음.
513,杉並区,東京都杉並区阿佐谷南一丁目273 本間アパート A7号室,※告知事項有（入居者死亡）,2021,東京都 杉並区 阿佐谷 南一丁目,35.70111846923828,139.6398468017578,*공지사항 없음
514,杉並区,東京都杉並区成田東四丁目3518 メゾン中里,1階 心理的瑕疵あり,平成30年11月6日,東京都 杉並区 成田 東四丁目,35.69678497314453,139.6361083984375,1층 심리적 하자 있음.
515,杉並区,東京都杉並区阿佐谷南一丁目2018 セジュール阿佐ヶ谷 1F 部屋番不明,告知事項が御座います,不明,東京都 杉並区 阿佐谷 南一丁目,35.70111846923828,139.6398468017578,공지 사항이 있습니다.
516,杉並区,東京都杉並区阿佐谷南一丁目125,高層階から中庭に飛び降り自殺,2007年ごろ,東京都 杉並区 阿佐谷 南一丁目,35.70111846923828,139.6398468017578,고층층에서 중당으로 뛰어내리고 자살
517,杉並区,東京都杉並区阿佐谷南一丁目98 マンションアルファ,"3階 角部屋 東向きワンルーム（洋室6帖） 専有面積16㎡ 賃料54万円 管理費等2000円
容認事項有",令和4年8月6日,東京都 杉並区 阿佐谷 南一丁目,35.70111846923828,139.6398468017578,"3층 각 방 건너편 원룸(양로 6단), 전용면적 5m2("
518,杉並区,東京都杉並区阿佐谷南一丁目88 タウンコート阿佐ヶ谷,"406号室 角部屋
告知事項あり",令和4年6月14日,東京都 杉並区 阿佐谷 南一丁目,35.70111846923828,139.6398468017578,406호실 각 방안내사항
519,杉並区,東京都杉並区阿佐谷南一丁目146 3F,告知事項あり 詳細不明,２０１９年９月２７日,東京都 杉並区 阿佐谷 南一丁目,35.70111846923828,139.6398468017578,공고사항 및 상세불명
520,杉並区,東京都杉並区阿佐谷南一丁目2022川染荘101,火災による死亡,平成24年3月22日,東京都 杉並区 阿佐谷 南一丁目,35.70111846923828,139.6398468017578,화재로 인한 사망
521,杉並区,東京都杉並区阿佐谷南一丁目2024,警察の立ち入りにて遺体発見,平成29年12月5日,東京都 杉並区 阿佐谷 南一丁目,35.70111846923828,139.6398468017578,경찰이 들어서자 시신 발견
522,文京区,東京都文京区小石川二丁目813,孤高死,15年前,東京都 文京区 小石川 二丁目,35.710575103759766,139.74900817871094,고고사
523,文京区,東京都文京区春日一丁目1113,"コア伝通院 3階 告知事項あり。
httpssuumojpchintaitokyoscbunkyojnc000027501988bc100091752252",平成29年5月15日,東京都 文京区 春日 一丁目,35.70804977416992,139.7494354248047,코어 전염원 3층 공지사항 있음. htsummo jpch
524,文京区,東京都文京区小石川一丁目159,"5年ほど前ラーメン屋の前の店舗とんかつ屋主店の中で



首つり",5ねんほどまえ,東京都 文京区 小石川 一丁目,35.71197891235352,139.7520751953125,5년 정도 전 라면집 앞 점포 돈까스 집 주인장 앞에서 목살 집
525,文京区,東京都文京区本郷五丁目114梨の木坂ハウス,無理心中,平成30年9月26日,東京都 文京区 本郷 五丁目,35.71011734008789,139.75811767578125,무리중심 中
526,文京区,東京都文京区本郷一丁目3515 都営本郷一丁目アパート 3階陸屋根,住人の飛び降り自殺,2015年3月頃,東京都 文京区 本郷 一丁目,35.70501708984375,139.7563018798828,주민의 비명살 자살
527,文京区,東京都文京区本郷四丁目305,女性の孤高死,2013年,東京都 文京区 本郷 四丁目,35.70945358276367,139.75523376464844,여성의 고독사
528,文京区,東京都文京区春日一丁目1621,"シビックセンター屋内階段
区職員が首吊り自殺",2016年,東京都 文京区 春日 一丁目,35.70804977416992,139.7494354248047,시빅센터 실내 계단 직원들이 목줄 자살
529,文京区,東京都文京区本郷一丁目3515 都営本郷一丁目アパート,14階非常階段より 飛び降り自殺,平成22年7月27日,東京都 文京区 本郷 一丁目,35.70501708984375,139.7563018798828,14층 비상계단보다 뛰어내리고 자살
530,文京区,東京都文京区後楽一丁目76,自殺,平成23年5月11日,東京都 文京区 後楽 一丁目,35.70457077026367,139.75054931640625,자살
531,文京区,東京都文京区本郷一丁目1113福田ビル1階,死体発見,平成21年11月9日,東京都 文京区 本郷 一丁目,35.70501708984375,139.7563018798828,시체 발견
532,文京区,東京都文京区本郷一丁目333 後楽園キャステール 3階,心理的瑕疵有,時期不明,東京都 文京区 本郷 一丁目,35.70501708984375,139.7563018798828,심리적 하자유무
533,文京区,東京都文京区本郷一丁目525,女子生徒が校舎5階 生物室から投身,令和3年7月7日,東京都 文京区 本郷 一丁目,35.70501708984375,139.7563018798828,여학생이 학교 건물 5층 생물실에서 투신
534,文京区,東京都文京区本郷一丁目333,805室 女性飛び降り自殺。,平成26年10月16日,東京都 文京区 本郷 一丁目,35.70501708984375,139.7563018798828,805실 여성 추락 자살.
535,文京区,東京都文京区本郷一丁目332水道橋グランドホテル523,硫化水素自殺,平成22年3月26日,東京都 文京区 本郷 一丁目,35.70501708984375,139.7563018798828,유황수소 자살
536,文京区,東京都文京区本郷一丁目244 レジディア文京本郷,"旧名称：アルティス本郷

906号室 角部屋
告知事項有",令和4年7月28日,東京都 文京区 本郷 一丁目,35.70501708984375,139.7563018798828,명칭: 아티스 본고향 936호실 각 방도 고지사항
537,荒川区,東京都荒川区荒川七丁目347,"2階 南東向き 2095㎡

告知事項アリ",不明,東京都 荒川区 荒川 七丁目,35.741607666015625,139.78224182128906,2층 남동향! 공고사항
538,荒川区,東京都荒川区荒川七丁目461,マークスタワー24階より飛び降り自殺,平成25年11月22日,東京都 荒川区 荒川 七丁目,35.741607666015625,139.78224182128906,마크 스타워 24층부터 뛰어내리고 자살
539,荒川区,東京都荒川区荒川七丁目243,火災による死亡,平成20年7月4日,東京都 荒川区 荒川 七丁目,35.741607666015625,139.78224182128906,화재로 인한 사망
540,荒川区,東京都荒川区荒川七丁目363 セブン・ナルケマンション,"3階 西向き3LDK 専有面積6467㎡
告知事項有",令和4年5月10日,東京都 荒川区 荒川 七丁目,35.741607666015625,139.78224182128906,3층 서쪽으로 3DY 전용면적 500m~24macile 광고사항
541,荒川区,東京都荒川区荒川七丁目461 マークスタワー,"410号室 分譲賃貸
告知事項有
定期借家（3年）",令和4年8月22日,東京都 荒川区 荒川 七丁目,35.741607666015625,139.78224182128906,410호실 임대주택 임대차 통지사항유형 차입주(32년)
542,荒川区,東京都荒川区荒川七丁目36−３,在日韓国人の青年飛び降り自殺,平成24年,東京都 荒川区 荒川 七丁目 36番,35.74107360839844,139.7802276611328,재일교포 청년 추락 자살
543,荒川区,東京都荒川区荒川二丁目457,火災による死亡,平成31年1月20日,東京都 荒川区 荒川 二丁目,35.73756790161133,139.78323364257812,화재로 인한 사망
544,荒川区,東京都荒川区荒川四丁目324 サンハイツ,一戸建て住宅1人暮らしで男性が亡くなり周辺住民が腐乱臭に気付き通報。その後改装してアパートになった。,平成17年9月1日,東京都 荒川区 荒川 四丁目,35.737979888916016,139.77957153320312,단독주택 단독주택으로 남자가 죽으면서 주변 주민들이 부패 냄새를 알아보고 신고했다.
545,荒川区,東京都荒川区荒川七丁目363 セブン・ナルケマンション［4階402号室］，10階，［11階1101号室］,心理的瑕疵有,不明,東京都 荒川区 荒川 七丁目,35.741607666015625,139.78224182128906,심리적 하자유무
546,荒川区,東京都荒川区荒川四丁目41,転落死,平成22年2月25日,東京都 荒川区 荒川 四丁目 41番,35.73936462402344,139.77915954589844,회전사
547,荒川区,東京都荒川区荒川三丁目304,火災による死亡,平成21年12月24日,東京都 荒川区 荒川 三丁目,35.73424530029297,139.78111267089844,화재로 인한 사망
548,荒川区,東京都荒川区荒川四丁目227サンハイツ荒川2階,死体発見,平成27年7月30日,東京都 荒川区 荒川 四丁目,35.737979888916016,139.77957153320312,시체 발견
549,板橋区,東京都板橋区仲宿348,孤高死,2015,東京都 板橋区 仲宿,35.7553825378418,139.70985412597656,고고사
550,板橋区,東京都板橋区仲宿3613,心理的瑕疵物件,2013,東京都 板橋区 仲宿,35.7553825378418,139.70985412597656,심리적 하자물건
551,板橋区,東京都板橋区仲宿573 メゾン・ド・セレール,"4階 角部屋
告知事項有",令和4年10月13日,東京都 板橋区 仲宿,35.7553825378418,139.70985412597656,4층 각방고시사항유.
552,板橋区,東京都板橋区仲宿357,孤高死,2014,東京都 板橋区 仲宿,35.7553825378418,139.70985412597656,고고사
553,板橋区,東京都板橋区仲宿3512 青田荘,"1階 南向き1DK（和室6畳、DK5帖、風呂なし） 専有面積20㎡ 賃料4万円
告知事項あり",令和4年6月23日,東京都 板橋区 仲宿,35.7553825378418,139.70985412597656,"1층 남향 1KID(화룸 6칸, DK5칸, 욕실없"
554,板橋区,東京都板橋区板橋三丁目914,"グラスコート板橋 部屋番号不明
心理的瑕疵物件",2010年以降,東京都 板橋区 板橋 三丁目,35.75181579589844,139.71380615234375,유리코트 이타바시야 방호실 번호불명적 하자물건
555,板橋区,東京都板橋区板橋三丁目812,"ジュエル板橋区役所前7階
心理的瑕疵物件",令和3年2月22日,東京都 板橋区 板橋 三丁目,35.75181579589844,139.71380615234375,쥬얼리 판교구청 앞 7층 심리적 손상물건
556,板橋区,東京都板橋区仲宿3512 青田荘 206号室,心理的瑕疵が御座います,不明,東京都 板橋区 仲宿,35.7553825378418,139.70985412597656,심리적으로 하자가 있어요.
557,板橋区,東京都板橋区板橋三丁目913 野間ビル 4階402,告知事項あり,2017年,東京都 板橋区 板橋 三丁目,35.75181579589844,139.71380615234375,공고사항
558,板橋区,東京都板橋区仲宿3610,原因不明の事故,2011,東京都 板橋区 仲宿,35.7553825378418,139.70985412597656,원인불명의 사고
559,板橋区,東京都板橋区板橋三丁目113 グリーンパレス,"1階 角部屋 南向き1DK（洋室6帖、DK68帖） 専有面積238㎡
心理的瑕疵あり（同建物内の別室にて自殺及び自然死の瑕疵あり）",令和4年5月15日,東京都 板橋区 板橋 三丁目,35.75181579589844,139.71380615234375,"1층 각 방 중앙 남향 1D, 1D룸 6첩, DK6"
560,板橋区,東京都板橋区仲宿391 須田ビル402,心理的瑕疵物件,5年前,東京都 板橋区 仲宿,35.7553825378418,139.70985412597656,심리적 하자물건
561,板橋区,東京都板橋区仲宿438 ドミールジュネス 2階203号室南西角部屋,心理的瑕疵有,不明,東京都 板橋区 仲宿,35.7553825378418,139.70985412597656,심리적 하자유무
562,板橋区,東京都板橋区仲宿586 第三トキワコーポ,"httpssuumojpchintaitokyoscitabashibc100039936988
第三トキワコーポ 2階 部屋番号は不明
告知事項が御座います",2015年,東京都 板橋区 仲宿,35.7553825378418,139.70985412597656,쉐이크summojpchinti koi sko
563,板橋区,東京都板橋区板橋三丁目23,801。心理的瑕疵あり,不明,東京都 板橋区 板橋 三丁目 23番,35.751365661621094,139.7135772705078,801. 심리적 하자 있음.
564,板橋区,東京都板橋区板橋二丁目603板橋区役所前ビューハイツ703,刑法第190条,平成26年3月7日,東京都 板橋区 板橋 二丁目,35.748165130615234,139.71109008789062,형법 제190조
565,板橋区,東京都板橋区板橋二丁目639,1008号室心理的瑕疵あり,20163上旬,東京都 板橋区 板橋 二丁目,35.748165130615234,139.71109008789062,1008호실 심리적 하자
566,板橋区,東京都板橋区板橋二丁目642,自殺,2015,東京都 板橋区 板橋 二丁目,35.748165130615234,139.71109008789062,자살
567,板橋区,東京都板橋区大山東町3212トーカンマンション大山205,死体発見,平成23年8月中旬,東京都 板橋区 大山東町,35.74905776977539,139.7051544189453,시체 발견
568,板橋区,東京都板橋区板橋三丁目23リヴァ－ジュコ－ト 7階701,心理的瑕疵あり,不明,東京都 板橋区 板橋 三丁目 23番,35.751365661621094,139.7135772705078,심리적 하자 있음
569,板橋区,東京都板橋区大山金井町１,"ルビナス大山、1LDK最上階角部屋
ポーチ部分にて自殺",2012年上旬,東京都 板橋区 大山金井町 1番,35.74613571166992,139.7100372314453,"루비너스 대산, 1LDK 꼭대기층 복도부 키친 부분에서"
570,板橋区,東京都板橋区板橋三丁目23 リヴァ－ジュコ－ト 2階203号室,心理的瑕疵あり,不明,東京都 板橋区 板橋 三丁目 23番,35.751365661621094,139.7135772705078,심리적 하자 있음
571,板橋区,東京都板橋区板橋三丁目22601号室602号室,"ホワイトパレスイトウ
心理的瑕疵あり。7F",平成27年6月25日,東京都 板橋区 板橋 三丁目,35.75181579589844,139.71380615234375,화이트 패스 리스트 양심적 하자가 있다.
572,板橋区,東京都板橋区大山東町321 フェニックス板橋大山207号室,腐乱死体発見,2017年7月中旬,東京都 板橋区 大山東町,35.74905776977539,139.7051544189453,부패사체 발견
573,板橋区,東京都板橋区板橋三丁目32,飛び降り自殺,平成２５年,東京都 板橋区 板橋 三丁目 32番,35.7517204284668,139.71502685546875,뛰어내리 자살
574,板橋区,東京都板橋区板橋三丁目23 リヴァ－ジュコ－ト,"httpssuumojpchintaitokyoscitabashibc100030931779
リヴァ－ジュコ－ト 9階 部屋番号は不明
告知事項が御座います",2016年,東京都 板橋区 板橋 三丁目 23番,35.751365661621094,139.7135772705078,summus juji ppchinti koiso s
575,板橋区,東京都板橋区板橋二丁目7,火災による焼死,2000,東京都 板橋区 板橋 二丁目 7番,35.74710464477539,139.71295166015625,화재로 인한 사망
577,板橋区,東京都板橋区板橋三丁目22 ホワイトパレスイトウ601,心理的瑕疵あり,不明,東京都 板橋区 板橋 三丁目 22番,35.75174331665039,139.7135467529297,심리적 하자 있음
578,板橋区,東京都板橋区板橋三丁目4413,１階の浴槽にて自殺,６年前,東京都 板橋区 板橋 三丁目,35.75181579589844,139.71380615234375,1층 욕조에서 자살
579,板橋区,東京都板橋区板橋三丁目二丁目2602,心理的瑕疵あり,不明,東京都 板橋区 板橋 三丁目 2番,35.74993133544922,139.71298217773438,심리적 하자 있음
580,品川区,東京都品川区二葉一丁目1建設現場,高所作業車が倒れて死亡,平成25年1月16日,東京都 品川区 二葉 一丁目 1番,35.608646392822266,139.72665405273438,고소 작업차가 쓰러져서 사망
581,品川区,東京都品川区豊町二丁目182 メゾン・ド・リュビ,"3階 東向きワンルーム 専有面積1394㎡ 賃料47万円 管理費等3000円
告知事項あり",令和4年7月2日,東京都 品川区 豊町 二丁目,35.61030197143555,139.7234649658203,3층 동쪽 원룸 전용면적: 임대료 47만엔 관리비 3000엔 부과
582,品川区,東京都品川区西品川一丁目1110青雲荘207210,火災による死亡,平成18年8月22日,東京都 品川区 西品川 一丁目,35.61228561401367,139.72950744628906,화재로 인한 사망
583,品川区,東京都品川区豊町二丁目142,販売物件 告知事項アリ 記載,20225完成販売物件,東京都 品川区 豊町 二丁目,35.61030197143555,139.7234649658203,판매물건신고사항아리
584,品川区,東京都品川区二葉一丁目66,"青稜中学校三階から転落
その後死亡",2018年10月,東京都 品川区 二葉 一丁目,35.60680389404297,139.72671508789062,청경중학교 3층에서 추락 이후 사망
585,品川区,東京都品川区広町二丁目119 JR広町アパート4号棟,飛び降り自殺,平成19年4月11日,東京都 品川区 広町 二丁目,35.611900329589844,139.73284912109375,뛰어내리 자살
586,品川区,東京都品川区二葉１丁目１７１８ メゾン・ド・パナシェ 209,首吊り自殺,24年1月,東京都 品川区 二葉 一丁目,35.60680389404297,139.72671508789062,목살 자살
587,品川区,東京都品川区大井二丁目716,刺殺,令和4年5月17日,東京都 品川区 大井 二丁目,35.60504150390625,139.72901916503906,사시미
588,品川区,東京都品川区二葉一丁目123,心理的瑕疵,平成30年10月1日,東京都 品川区 二葉 一丁目,35.60680389404297,139.72671508789062,심리적 하자
589,品川区,東京都品川区二葉1丁目139 メゾンドアストル 203号室,病死がありました,不明,東京都 品川区 二葉 一丁目,35.60680389404297,139.72671508789062,병사가 있었습니다.
590,品川区,東京都品川区大井一丁目369,3階 ホームズにて心理的瑕疵ありと記載,不明,東京都 品川区 大井 一丁目,35.60585403442383,139.73255920410156,3층 해쉬에 있어서 심리적 하자 있음.
591,品川区,東京都品川区大井一丁目357 アーマックス大井町0304号室,"告知事項あり物件

下のフロアの住民がモンスタークレーマー
居室内を歩くだけで音が煩く鳴り響くと管理会社へ連絡をする

床をタイルカーペットに変更したものの、新しく入居した方がすぐ退去してしまった。",令和2年5月13日,東京都 品川区 大井 一丁目,35.60585403442383,139.73255920410156,고소 사항 있는 아파트 벽난로 주민들이 몽스터크림 거실 안을 걸을 뿐
592,品川区,東京都品川区大井一丁目526 コスモ大井町406,自然死。遺体発見。死後2～3週間経過。,平成29年9月6日,東京都 品川区 大井 一丁目,35.60585403442383,139.73255920410156,자연사. 시체 발견. 죽은 지 2주 경과.
593,品川区,東京都品川区大井一丁目2510,"802号室の住人が午前3時ころ飛び降り。
7月15日に生活本舗が室内整理予定。",令和3年5月18日,東京都 品川区 大井 一丁目,35.60585403442383,139.73255920410156,828호실의 주민이 새벽 3시쯤 뛰어내렸다. 7월 15일에 생활 본점이 실내
594,品川区,東京都品川区大井一丁目218 メガロン大井町,"709号室
告知事項有り
室内新規リフォーム済",令和4年5月14日,東京都 品川区 大井 一丁目,35.60585403442383,139.73255920410156,709호실 공지사항 있음 실내 신규 리모델링
595,品川区,東京都品川区大井一丁目2119メゾン大井町203,火災による死亡,平成23年11月27日,東京都 品川区 大井 一丁目,35.60585403442383,139.73255920410156,화재로 인한 사망
596,品川区,東京都品川区大井一丁目2112 東急ドエル・アルス大井一丁目 804,"住民意識不明の状態で発見。
病院搬送されるも死亡確認。

遺品整理後、リフォーム実施",令和2年6月1日,東京都 品川区 大井 一丁目,35.60585403442383,139.73255920410156,주민 의식 불명인 상태로 발견. 병원 이송되지만 사망 확인. 유품 정리 후 리
597,品川区,東京都品川区大井一丁目437 トップルーム品川NO2,"【投資用オーナーチェンジ】
9階 南向き1R 専有面積99㎡ 価格750万円 管理費等7000円 修繕積立金6000円
告知事項あり：現在の賃借人の前の賃借人が孤高死しております。",令和4年9月19日,東京都 品川区 大井 一丁目,35.60585403442383,139.73255920410156,[투자용 오퍼레이즈] 9층 남향 1R 전용면적(가격
598,品川区,東京都品川区大井一丁目437 トップルーム品川第二 705号室,心理的瑕疵有と記載LIFULL HOMES,不明,東京都 品川区 大井 一丁目,35.60585403442383,139.73255920410156,심리적 하자유무와 기재 LIMEL HOMES
599,千代田区,東京都千代田区九段南一丁目31,飛び降り自殺,2021年05月初旬,東京都 千代田区 九段 南一丁目,35.693973541259766,139.75326538085938,뛰어내리 자살
600,千代田区,東京都千代田区神田神保町二丁目429 松本ビル,敷地内 死体発見,平成19年8月21日,東京都 千代田区 神田神保町 二丁目,35.69663619995117,139.75645446777344,부지내 시체 발견
601,千代田区,東京都千代田区神田神保町三丁目111 6階,自殺,2011年,東京都 千代田区 神田神保町 三丁目,35.69536590576172,139.7542724609375,자살
602,千代田区,東京都千代田区神田神保町二丁目六丁目114,"メゾン・ド・ヴィレ神田神保町406号室 
告知事項有り",不明,東京都 千代田区 神田神保町 二丁目 6番地,35.69655227661133,139.75550842285156,매드라디 가네다 신포초 440호실 공지사항
603,足立区,東京都足立区中央本町四丁目62 セントラルハイツ,"201号室
告知事項有",令和4年4月27日,東京都 足立区 中央本町 四丁目,35.77543258666992,139.8082733154297,2016호실 공지사항
604,足立区,東京都足立区中央本町四丁目62 セントラルハイツ 1階,告知事項あり（不動産情報より）,2020年3月現在,東京都 足立区 中央本町 四丁目,35.77543258666992,139.8082733154297,공지사항 있습니다~ 부동산 정보부터!
605,足立区,東京都足立区中央本町一丁目1812,604号室から女性が犬を抱き飛び降り。,2011年頃,東京都 足立区 中央本町 一丁目,35.77276992797852,139.80441284179688,604호실에서 여자가 개를 안고 뛰어내렸다.
606,足立区,東京都足立区梅田七丁目229 梅島ハイツ,"6階 角部屋
告知事項有
2022年10月リフォーム完了予定",令和4年10月15日,東京都 足立区 梅田 七丁目,35.769554138183594,139.80067443847656,6층 각방고시사항 2019.29.
607,足立区,東京都足立区梅島一丁目246 シティーフラッツ,"203号室
告知事項有",令和4年5月24日,東京都 足立区 梅島 一丁目,35.77249526977539,139.8007049560547,203호실 공지사항유
608,足立区,東京都足立区足立四丁目1616,"賃貸の募集が出ていたが同建物内の他の部屋と比較して明らかに家賃が安かったので不動産業者に確認
人が亡くなっているとのこと
502号室",2021年11月,東京都 足立区 足立 四丁目,35.76619338989258,139.8057861328125,임대 모집이 나왔지만 건물 안의 다른 방과 비교해서 분명히 월세가 저렴했기 때문에
609,足立区,東京都足立区梅島一丁目24番6号シティフラッツ103号室,居住男性の病気による孤高死,2019,東京都 足立区 梅島 一丁目 24番 6号,35.77178192138672,139.8023223876953,거주 남성의 질병에 의한 고독사
610,足立区,東京都足立区梅島一丁目241 601,中年女性 病死による孤高死,H299月上旬,東京都 足立区 梅島 一丁目,35.77249526977539,139.8007049560547,중년 여성병살에 의한 고독사
611,足立区,東京都足立区足立四丁目1616 コルソ五反野,"5階 西向き1K（洋室8帖、K） 専有面積2976㎡ 賃料5万円 管理費等5000円
告知事項あり",令和4年6月15日,東京都 足立区 足立 四丁目,35.76619338989258,139.8057861328125,"5층 서쪽으로 1KY(양옥 8칸, K-무형적면)"
612,足立区,東京都足立区中央本町一丁目66 都営中央本町一丁目アパート6号棟,敷地内 首吊り自殺,平成25年9月17日,東京都 足立区 中央本町 一丁目,35.77276992797852,139.80441284179688,부지내 목살 자살
613,目黒区,東京都目黒区上目黒二丁目1720,心理的瑕疵,2012,東京都 目黒区 上目黒 二丁目,35.64118957519531,139.6968994140625,심리적 하자
614,目黒区,東京都目黒区上目黒二丁目1611,練炭自殺,2010〜2011,東京都 目黒区 上目黒 二丁目,35.64118957519531,139.6968994140625,연탄 자살
615,目黒区,東京都目黒区上目黒二丁目182,賃貸物件サイトに病死の部屋がある旨、記載あり,2014年？,東京都 目黒区 上目黒 二丁目,35.64118957519531,139.6968994140625,임대건물 사이트에 병사가 있는 것 등 기재
616,目黒区,東京都目黒区上目黒二丁目154,"訂正して下さり、ありがとうございます。

東京都目黒区上目黒2154 マスダビル 増田隆良 301024",平成30年10月24日,東京都 目黒区 上目黒 二丁目,35.64118957519531,139.6968994140625,정정해 주셔서 감사합니다 도쿄도메구 미테쿠 구로 21
617,目黒区,東京都目黒区中目黒一丁目1022中目黒ハイツ15階↓3階,転落死,平成23年10月21日,東京都 目黒区 中目黒 一丁目,35.64372634887695,139.70278930664062,회전사
618,目黒区,東京都目黒区上目黒二丁目151,"パシフィックタワー中目黒・高層棟屋上・首吊り自殺。
部外者がマンションに侵入し屋上にて首吊り自殺。
当該物件に住んでいた別れた彼女への嫌がらせと思われる。",平成20年11月？,東京都 目黒区 上目黒 二丁目,35.64118957519531,139.6968994140625,"파크 타워 안뜰, 고층 아파트 옥상 자살. 외부인이 아파트에 침입해 옥"
619,練馬区,東京都練馬区練馬三丁目12 ドゥーエ練馬Ⅱ,8階から飛び降り自殺,平成28年9月15日,東京都 練馬区 練馬 三丁目 12番,35.73866271972656,139.6471405029297,8층에서 뛰어내리고 자살
620,練馬区,東京都練馬区練馬三丁目28ライオンズマンション練馬14階↓,飛び降り自殺,平成21年6月16日,東京都 練馬区 練馬 三丁目 28番,35.739036560058594,139.64749145507812,뛰어내리 자살
621,練馬区,東京都練馬区中村北一丁目113フォーラムイン東京718,刺殺,平成20年4月3日,東京都 練馬区 中村 北一丁目,35.735836029052734,139.64724731445312,사시미
622,練馬区,東京都練馬区練馬一丁目68 ボナール縁 5階角部屋,告知事項有,不明,東京都 練馬区 練馬 一丁目,35.73895263671875,139.6537628173828,공고사항유
623,練馬区,東京都練馬区練馬三丁目28ライオンズマンション練馬,死体発見,令和3年6月21日,東京都 練馬区 練馬 三丁目 28番,35.739036560058594,139.64749145507812,시체 발견
624,練馬区,東京都練馬区中村一丁目1119 207号室,告知事項あり,令和元年9月1日,東京都 練馬区 中村 一丁目,35.73271179199219,139.64752197265625,공고사항
625,練馬区,東京都練馬区練馬三丁目35,6日朝方9階非常階段から飛び降り,平成29年5月6日,東京都 練馬区 練馬 三丁目,35.73847961425781,139.6476287841797,6일 아침 9층 비상계단에서 뛰어내리기
626,練馬区,東京都練馬区豊玉北六丁目251,首吊自殺,2014年ごろ,東京都 練馬区 豊玉 北六丁目,35.73525619506836,139.65135192871094,졸살 자살
627,練馬区,東京都練馬区豊玉北六丁目209豊玉第2コーポラス713,火災による死亡,平成20年2月7日,東京都 練馬区 豊玉 北六丁目,35.73525619506836,139.65135192871094,화재로 인한 사망
628,練馬区,東京都練馬区中村北一丁目113 フォーラムイン東京,"706号室 分譲賃貸
告知事項有
2022年10月リフォーム済",令和4年10月3日,東京都 練馬区 中村 北一丁目,35.735836029052734,139.64724731445312,706호실 임대료 임대차 통지사항 #2020년 10월 리폼
629,練馬区,東京都練馬区中村北一丁目113,306号室 告知事項あり不動産ホームページに記載,不明,東京都 練馬区 中村 北一丁目,35.735836029052734,139.64724731445312,306호실 공지사항 있음 부동산 홈페이지에 기재
630,練馬区,東京都練馬区中村北一丁目116,7階から飛び降り自殺,令和3年4月13日,東京都 練馬区 中村 北一丁目,35.735836029052734,139.64724731445312,7층에서 뛰어내리고 자살
631,練馬区,東京都練馬区練馬一丁目615,"サンパレス練馬105号室
告知事項あり",不明,東京都 練馬区 練馬 一丁目,35.73895263671875,139.6537628173828,쌈밥레스 네기 105호실 공지사항
632,練馬区,東京都練馬区練馬一丁目68 ボナール縁,5階 504号室 心理的瑕疵あり,平成30年10月25日,東京都 練馬区 練馬 一丁目,35.73895263671875,139.6537628173828,5층 504호실 심리적 하자
633,練馬区,東京都練馬区練馬三丁目25,14階で自殺,平成30年11月29日,東京都 練馬区 練馬 三丁目 25番,35.73971176147461,139.64859008789062,14층에서 자살
634,練馬区,東京都練馬区練馬三丁目28ライオンズマンション練馬403,絞殺,平成21年6月16日,東京都 練馬区 練馬 三丁目 28番,35.739036560058594,139.64749145507812,컷살
635,府中市,東京都府中市宮西町一丁目5,刺殺,平成19年2月14日,東京都 府中市 宮西町 一丁目 5番,35.67148208618164,139.4788818359375,사시미
636,府中市,東京都府中市府中町二丁目101,心理的瑕疵物件,平成30年4月11日,東京都 府中市 府中町 二丁目,35.67462921142578,139.483154296875,심리적 하자물건
637,府中市,東京都府中市府中町一丁目51,"ホテルコンチネンタル府中、地下１階
自己啓発主催者ら書類送検＝セミナー中に男性死亡―遺棄致死容疑で・警視庁",平成22年1月27日,東京都 府中市 府中町 一丁目,35.67498016357422,139.4805450439453,"호텔 콘티넨탈 부중, 지하 2층 자기계발 주최자 등 서류송부"
638,府中市,東京都府中市本町一丁目131,病死,平成18年2月18日,東京都 府中市 本町 一丁目,35.66646957397461,139.47799682617188,병살
639,府中市,東京都府中市宮町二丁目198 パークモト江,201号室 国籍不詳、年齢37歳、女性、食道静脈瘤破裂による死亡,平成23年10月10日,東京都 府中市 宮町 二丁目,35.66910934448242,139.4815673828125,"2016호 국적부적, 연 37세, 여성, 식단조절 부상으로 인한"
640,府中市,東京都府中市本町一丁目947ドウエル府中本町,2階。告知事項ありとなっていたが続々と退去者が出た為か、業者が借りたことにし内容を隠し再度募集をかけていた。,2018年8月頃,東京都 府中市 本町 一丁目,35.66646957397461,139.47799682617188,2층. 공고사항은 있었지만 계속해서 퇴거자가 나와서인지 업체가 빌려준 것으로 내용을
641,八王子市,東京都八王子市元本郷町三丁目241,首吊り自殺,首吊り自殺,東京都 八王子市 元本郷町 三丁目,35.6648063659668,139.3159637451172,목살 자살
642,八王子市,東京都八王子市元本郷町四丁目149,老人孤高死,令和3年2月8日,東京都 八王子市 元本郷町 四丁目,35.66530227661133,139.31307983398438,노인 고독사
643,八王子市,東京都八王子市元本郷町三丁目75,105号室 孤高死・腐乱,2017年7～8月頃,東京都 八王子市 元本郷町 三丁目,35.6648063659668,139.3159637451172,105호실 고고사 부패
644,八王子市,東京都八王子市元本郷町三丁目916,火災による死亡,平成28年3月17日,東京都 八王子市 元本郷町 三丁目,35.6648063659668,139.3159637451172,화재로 인한 사망
645,八王子市,東京都八王子市元本郷町四丁目1424,"病死
腐乱死体",令和元年12月10日,東京都 八王子市 元本郷町 四丁目,35.66530227661133,139.31307983398438,병살난사체
646,八王子市,東京都八王子市元本郷町四丁目132都営元本郷町四丁目アパート2号棟108,刺殺,平成26年6月13日,東京都 八王子市 元本郷町 四丁目,35.66530227661133,139.31307983398438,사시미
647,日野市,東京都日野市神明四丁目712 コートピア日野,"202号室 角部屋
告知事項有",令和4年10月8日,東京都 日野市 神明 四丁目,35.67366409301758,139.39707946777344,202호실 각 방도 고지사항
648,国分寺市,東京都国分寺市戸倉一丁目825,首吊り自殺,2021年5月,東京都 国分寺市 戸倉 一丁目,35.71209716796875,139.4612274169922,목살 자살
649,国分寺市,東京都国分寺市日吉町四丁目61,火災により78歳男性が4日後に亡くなった,平成29年7月22日,東京都 国分寺市 日吉町 四丁目,35.70663833618164,139.46070861816406,화재로 78세 남성이 4일 만에 사망했다.
650,国分寺市,東京都国分寺市戸倉一丁目825 PlaceK,"5階 角部屋
告知事項有り",令和4年10月6日,東京都 国分寺市 戸倉 一丁目,35.71209716796875,139.4612274169922,5층 각방고시사항 있음
651,国分寺市,東京都国分寺市戸倉一丁目825 プレイスK,"206号室、506号室
告知事項あり",令和4年7月30日,東京都 国分寺市 戸倉 一丁目,35.71209716796875,139.4612274169922,"206호실, 506호실 공지사항 있으십니까?"
652,国分寺市,東京都国分寺市戸倉一丁目514,火災によりお亡くなり,30年前,東京都 国分寺市 戸倉 一丁目,35.71209716796875,139.4612274169922,화재로 돌아가셔서
653,町田市,東京都町田市森野二丁目48 CASA VICENS,絞殺,平成19年5月6日,東京都 町田市 森野 二丁目,35.548248291015625,139.4402618408203,컷살
655,町田市,東京都町田市森野五丁目152,精神的瑕疵,2017,東京都 町田市 森野 五丁目,35.54928970336914,139.43490600585938,정신적 하자
656,町田市,東京都町田市森野二丁目34 ビラージュシンワ 301号室,告知事項あり,不明,東京都 町田市 森野 二丁目,35.548248291015625,139.4402618408203,공고사항
657,町田市,東京都町田市森野五丁目134,402号室 初老の男性 餓死,2013年,東京都 町田市 森野 五丁目,35.54928970336914,139.43490600585938,402호실 초로의 남성 폭사
658,町田市,東京都町田市森野五丁目1117,"押し入れに人骨が見付かった。
未解決事件。",2007年,東京都 町田市 森野 五丁目,35.54928970336914,139.43490600585938,벽장 인분에 인골이 발견됐어 미해결 사건.
660,町田市,東京都町田市森野一丁目3214アールヴェール町田森野,部屋番号不明。老人の遺体発見。緊急車両と警官の出動を、向かいにある予備校の学生多数が目撃。,2017年夏頃,東京都 町田市 森野 一丁目,35.54507064819336,139.4427490234375,방호수 불명. 노인들의 시신 발견. 긴급 차량과 경찰의 출동을
661,町田市,東京都町田市森野二丁目14,死亡事故,平成24年10月12日,東京都 町田市 森野 二丁目 14番,35.54726791381836,139.44129943847656,사망사고
662,町田市,東京都町田市森野一丁目411都営森野住宅11号棟3階,火災による死亡,平成27年12月29日,東京都 町田市 森野 一丁目,35.54507064819336,139.4427490234375,화재로 인한 사망
663,町田市,東京都町田市森野一丁目34,1F 孤高死,2020年3月,東京都 町田市 森野 一丁目 34番,35.546356201171875,139.44436645507812,1F 고고사
664,青梅市,東京都青梅市東青梅二丁目1612,熱中症により孤高死,2014年か2015年の8月頃,東京都 青梅市 東青梅 二丁目,35.79111862182617,139.272705078125,열사병에 의해 고비고사
665,青梅市,東京都青梅市東青梅三丁目264,夕方頃に救急車や警察が来ていた。防護服着ていた人もいたから、多分そういうことがあったと思われる。,令和3年7月後半,東京都 青梅市 東青梅 三丁目,35.789588928222656,139.27737426757812,저녁 무렵 구급차와 경찰이 왔었다.방호복을 입은 사람도 있었기 때문에 아마 그런
666,青梅市,東京都青梅市東青梅二丁目1913 ホーユウコンフォルト東青梅 3階,心理的瑕疵有,時期不明,東京都 青梅市 東青梅 二丁目,35.79111862182617,139.272705078125,심리적 하자유무
667,青梅市,東京都青梅市東青梅三丁目九丁目5206,孤高死もしくは自然死,2010年代,東京都 青梅市 東青梅 三丁目 9番,35.788429260253906,139.276123046875,고고사 혹은 자연사
668,青梅市,東京都青梅市東青梅三丁目85,告知事項あり。業者は全オーナーが病死と伝えてきたが、正確には前々オーナーが自殺、全オーナーが失踪とのこと。,2018年時点での情報,東京都 青梅市 東青梅 三丁目,35.789588928222656,139.27737426757812,"공지사항 있음. 업체는 전 주인이 사망이라고 전했지만, 정확하게는 전 주인이 자살하고"
669,青梅市,東京都青梅市東青梅二丁目一六丁目3501号室,自殺,平成29年10月8日,東京都 青梅市 東青梅 二丁目 16番,35.78951644897461,139.27481079101562,자살
670,青梅市,東京都青梅市千ヶ瀬町二丁目1276,独居男性の病死。発見時死後3ヶ月程度経過。,2011年,東京都 青梅市 千ヶ瀬町 二丁目,35.785011291503906,139.27365112304688,독거 남성의 사망. 발견시 사망 후 3개월 정도 경과.
671,調布市,東京都調布市小島町二丁目121 ＡＬＰＩＮＥ ＣＯＵＲＴ １ 1階,告知事項あり（不動産情報より）,2020年1月現在,東京都 調布市 小島町 二丁目,35.65103912353516,139.5402374267578,공지사항 있습니다~ 부동산 정보부터!
672,調布市,東京都調布市小島町二丁目1426ユマニテ調布103,傷害致死,平成24年9月18日～平成24年9月20日,東京都 調布市 小島町 二丁目,35.65103912353516,139.5402374267578,상해치사
673,調布市,東京都調布市小島町二丁目195,"ファミール小島町2F（部屋番号不明）
心理的瑕疵物件あり",不明,東京都 調布市 小島町 二丁目,35.65103912353516,139.5402374267578,미카롤 오시마마치 2F(방번호 불명) 심리불안 물품
674,調布市,東京都調布市小島町二丁目121 アルパイン・コートⅡ,"201号室 角部屋
告知事項有",令和4年5月27日,東京都 調布市 小島町 二丁目,35.65103912353516,139.5402374267578,2016호실 각 방안내사항
675,三鷹市,東京都三鷹市上連雀九丁目1414,29歳女性が首吊り自殺,2018年3月9日,東京都 三鷹市 上連雀 九丁目,35.686405181884766,139.55252075195312,29세 여성이 목도리 자살
676,三鷹市,東京都三鷹市上連雀八丁目216 コスモハイツ 2階,"心理的瑕疵物件
不動産情報に記載あり",時期不明,東京都 三鷹市 上連雀 八丁目,35.68613052368164,139.556884765625,심리적 하자 금전 부동산 정보에 기재
677,三鷹市,東京都三鷹市下連雀九丁目712 カサーレ三鷹 3階南向き住戸,"心理的瑕疵有
2019年02月：内装リフォーム済",時期不明,東京都 三鷹市 下連雀 九丁目,35.685813903808594,139.5612335205078,심리적 하자 2019년 2월~2012년 2월까지 BBB 인테리어 리모델링
678,三鷹市,東京都三鷹市下連雀九丁目540 アケボノマンション 202号室,告知事項が御座います,不明,東京都 三鷹市 下連雀 九丁目,35.685813903808594,139.5612335205078,공지 사항이 있습니다.
679,三鷹市,東京都三鷹市下連雀九丁目712カサーレ三鷹309,2019年始頃 首吊り自殺,2019年始頃,東京都 三鷹市 下連雀 九丁目,35.685813903808594,139.5612335205078,2019년 초경 목살 자살
680,小金井市,東京都小金井市本町六丁目53,シャトー小金井10階 火災で1人死亡,平成15年5月10日,東京都 小金井市 本町 六丁目,35.69989013671875,139.50315856933594,샤토 코가네이 10층 화재로 1명이 사망
681,東村山市,東京都東村山市本町二丁目2040 グレイスマンション 2階,告知事項あり（不動産情報より）,2020年1月現在,東京都 東村山市 本町 二丁目,35.76143264770508,139.4673309326172,공지사항 있습니다~ 부동산 정보부터!
682,東村山市,東京都東村山市本町一丁目21 エヴァース 1階102号室,心理的瑕疵有,時期不明,東京都 東村山市 本町 一丁目 21番,35.75699234008789,139.4684295654297,심리적 하자유무
683,東村山市,東京都東村山市本町一丁目1728,火災による死亡,平成29年1月3日,東京都 東村山市 本町 一丁目,35.754920959472656,139.46719360351562,화재로 인한 사망
684,東村山市,東京都東村山市本町四丁目23,告知事項あり,令和2年12月25日,東京都 東村山市 本町 四丁目,35.753692626953125,139.4721221923828,공고사항
685,東村山市,東京都東村山市本町一丁目445,"エミュー久米川 一階
不動産情報に心理的瑕疵との表記有り",不明,東京都 東村山市 本町 一丁目,35.754920959472656,139.46719360351562,"에미쿠마가와 일층 부동산 정보에 심리적 하자라는 표기,"
686,東村山市,東京都東村山市本町一丁目1324,２２２号室は告知事項あり、室内全体の補修工事が行われたらしいが、どのようなことがあったのか不明。年月日は補修完了から逆洗したもの。,令和2年2月1日,東京都 東村山市 本町 一丁目,35.754920959472656,139.46719360351562,1호실은 공지사항이며 실내 전체 보수공사가 이루어졌다고 하는데 어떤 일이 있었는지 알 수
687,東村山市,東京都東村山市本町一丁目445エミュー久米川,103号室 亡くなって3日ほどたって独居男性発見,平成27年7月29日,東京都 東村山市 本町 一丁目,35.754920959472656,139.46719360351562,103호실에 돌아가신 지 3일 정도 되면서 독거남성 발견
688,東村山市,東京都東村山市本町一丁目61,孤高死による死体発見,Ｈ１０年,東京都 東村山市 本町 一丁目,35.754920959472656,139.46719360351562,고공사살에 의한 시체 발견
689,東村山市,東京都東村山市栄町三丁目128 久米川マンション 5階,告知事項あり（不動産情報より）,2020年2月現在,東京都 東村山市 栄町 三丁目,35.747825622558594,139.46678161621094,공지사항 있습니다~ 부동산 정보부터!
690,東村山市,東京都東村山市本町一丁目136,えびす荘にて女性練炭自殺,平成28年8月23日,東京都 東村山市 本町 一丁目,35.754920959472656,139.46719360351562,에비수장에서 여성연탄 자살
691,東村山市,東京都東村山市本町一丁目1324 ワコーレ東村山,"112号室
告知事項有",令和4年5月27日,東京都 東村山市 本町 一丁目,35.754920959472656,139.46719360351562,112호 공지사항유
692,東村山市,東京都東村山市本町一丁目321,独居高齢者の不審死（事件と事故双方の可能性）,2021年夏,東京都 東村山市 本町 一丁目,35.754920959472656,139.46719360351562,독거노인의 수상한 심사가 일어난 사건 2건과 사고 양측 모두 가능할 것 같
693,多摩市,東京都多摩市貝取1707,火災による死亡,平成25年3月29日,東京都 多摩市 貝取 1707番地,35.6378288269043,139.44537353515625,화재로 인한 사망
694,多摩市,東京都多摩市貝取六丁目1010,心理的瑕疵,2015年頃,東京都 多摩市 貝取,35.63588333129883,139.4453887939453,심리적 하자
695,国立市,東京都国立市富士見台二丁目46 UR国立富士見台第2団地25号棟506,死体発見,平成27年9月22日,東京都 国立市 富士見台 二丁目 46番,35.68516159057617,139.44183349609375,시체 발견
696,国立市,東京都国立市富士見台二丁目464 第2団地5110,友人が自殺しました。,平成28年7月10日,東京都 国立市 富士見台 二丁目,35.6848258972168,139.44346618652344,친구가 자살했어요.
697,国立市,東京都国立市富士見台二丁目四六丁目25401,遺体発見,2020年6月１７日,東京都 国立市 富士見台 二丁目 46番,35.68516159057617,139.44183349609375,시신 발견
698,国立市,東京都国立市富士見台二丁目432,2階上がって左端の部屋、異臭により通報、浴室で男性の腐乱死体発見。体は溶け下半身は白骨化していた模様。男性はパニック障害者で孤高死でした。,2019年秋,東京都 国立市 富士見台 二丁目,35.6848258972168,139.44346618652344,"2층 올라가셔서 왼쪽 끝 방, 이류로 신고하셨고, 욕실에서 남성의 부패"
699,狛江市,東京都狛江市和泉本町一丁目363 狛江セントラルハイツ３号棟 8階,"心理的瑕疵有
内装リフォーム済：2018年01月",時期不明,東京都 狛江市 和泉本町 一丁目,35.63736343383789,139.5774383544922,심리적 하자 유무 인테리어 리모델링 완료 2018년 1월
700,狛江市,東京都狛江市岩戸北一丁目1210,205号室 過労死,平成30年3月25日,東京都 狛江市 岩戸 北一丁目,35.63655471801758,139.5819091796875,205호실 과로사
701,狛江市,東京都狛江市和泉本町一丁目1316,遺体発見,平成30年1月28日,東京都 狛江市 和泉本町 一丁目,35.63736343383789,139.5774383544922,시신 발견
702,狛江市,東京都狛江市和泉本町一丁目361 狛江セントラルハイツ1号棟,15階より 飛び降り自殺,平成20年6月21日,東京都 狛江市 和泉本町 一丁目,35.63736343383789,139.5774383544922,15층부터 뛰어내리고 자살
703,狛江市,東京都狛江市岩戸北一丁目813 スカイハイツI 2階,告知事項あり（不動産情報より）,2020年3月現在,東京都 狛江市 岩戸 北一丁目,35.63655471801758,139.5819091796875,공지사항 있습니다~ 부동산 정보부터!
704,狛江市,東京都狛江市岩戸北三丁目17,302号 遺体搬出,平成29年10月29日,東京都 狛江市 岩戸 北三丁目 17番,35.63358688354492,139.5822296142578,302호 시신 반입
705,狛江市,東京都狛江市岩戸北三丁目196（フラットえびす）,警察が来て、ブルーシートに遺体を乗せてワゴン車で運び出した。事件性の可否は不明。,2016２月か３月頃,東京都 狛江市 岩戸 北三丁目,35.63390350341797,139.58328247070312,경찰이 와서 블루 시트에 시신을 태우고 와곡 차로 옮겼다.사건 가능성은 불투명.
706,狛江市,東京都狛江市東和泉二丁目76,警官、ヘアーキャップを被った鑑識が来ており事件・事故については不明。,平成29年7月23日,東京都 狛江市 東和泉 二丁目,35.62998580932617,139.5800323486328,"경찰, 헤어캡을 쓴 감식이 오고 있어 사건·사고에 대해서는 불분명하다."
707,狛江市,東京都狛江市和泉本町一丁目24,絞殺,平成28年5月8日,東京都 狛江市 和泉本町 一丁目 24番,35.64073944091797,139.57591247558594,컷살
708,西東京市,東京都西東京市南町三丁目312,男性遺体発見,平成19年2月2日,東京都 西東京市 南町 三丁目,35.72483825683594,139.54330444335938,남성 시체 발견
709,西東京市,東京都西東京市田無町二丁目1221,"シェア田無
告知事項あり",2018,東京都 西東京市 田無町 二丁目,35.72834777832031,139.54347229003906,쉐프간고지사항
710,西東京市,東京都西東京市田無町四丁目265,告知事項有,平成19年11月14日,東京都 西東京市 田無町 四丁目,35.728485107421875,139.5371551513672,공고사항유
711,西東京市,東京都西東京市南町五丁目912,心理的瑕疵あり,2018年11月ごろ,東京都 西東京市 南町 五丁目,35.724613189697266,139.53689575195312,심리적 하자 있음
712,西東京市,東京都西東京市南町四丁目1111,告知事項あり,2021年9月時点,東京都 西東京市 南町 四丁目,35.7247314453125,139.54029846191406,공고사항
713,西東京市,東京都西東京市南町四丁目1710,火災による死亡,平成21年12月17日,東京都 西東京市 南町 四丁目,35.7247314453125,139.54029846191406,화재로 인한 사망
714,西東京市,東京都西東京市向台町三丁目19,無理心中,平成28年7月22日,東京都 西東京市 向台町 三丁目,35.71943664550781,139.53775024414062,무리중심 中
715,立川市,東京都立川市泉町11564,"薬使用後に７階位の踊り場から飛び降り自殺。
１８歳位の男性",８年位前,東京都 立川市 泉町,35.71589279174805,139.4043426513672,약 사용 후 1층 높이에서 뛰어내리며 자살.
716,小平市,東京都小平市小川東町五丁目一八丁目382 アルカンシエル・セブン 1階,告知事項あり,不明,東京都 小平市 小川東町 五丁目 18番,35.732666015625,139.47323608398438,공고사항
717,小平市,東京都小平市小川東町五丁目18382 アルカンシエルセブン,"205号室
心理的瑕疵あり",令和4年10月17日,東京都 小平市 小川東町 五丁目,35.733184814453125,139.47096252441406,205호실 심리적 하자 있음.
718,小平市,東京都小平市仲町62864,奥様が自殺。今は取り壊されている,20年くらい前,東京都 小平市 仲町,35.73088073730469,139.48541259765625,사모님이 자살하셨어 지금은 헐리고 있어.
719,小平市,東京都小平市小川東町二丁目1808,"まだ畑だった頃、灯油をかぶり、焼身自殺
。畳が重ねて置いてありましたが生々しく人の形に黒く焦げていました",23年くらい前,東京都 小平市 小川東町 二丁目,35.74295425415039,139.46682739257812,아직 밭이었을 때 등유를 뿌리고 불살. 다다미가 겹쳐져 있었지만 생생하게 사람의 모양으로
720,小平市,東京都小平市学園東町一丁目1017,202 自殺,不明,東京都 小平市 学園東町 一丁目,35.72455596923828,139.48068237304688,2020 자살
721,小平市,東京都小平市学園東町一丁目189,焼死,平成24年頃,東京都 小平市 学園東町 一丁目,35.72455596923828,139.48068237304688,쇼사
722,小平市,東京都小平市学園東町一丁目1539 シャトーブルー2階,2階部屋番号不明、心理的瑕疵物件,2016年6月初旬,東京都 小平市 学園東町 一丁目,35.72455596923828,139.48068237304688,"2층 방 번호, 심리적 하자 사건"
723,小平市,東京都小平市小川町二丁目135631みゆき荘2階,死体発見,約2年前,東京都 小平市 小川町 二丁目,35.72917938232422,139.4728240966797,시체 발견
724,羽村市,東京都羽村市栄町二丁目104 103,室内お亡くなり,202102,東京都 羽村市 栄町 二丁目,35.77118682861328,139.30992126464844,실내에서 돌아가신 거죠.
725,羽村市,東京都羽村市栄町二丁目64,絞殺,令和5年6月18日,東京都 羽村市 栄町 二丁目,35.77118682861328,139.30992126464844,컷살
726,羽村市,東京都羽村市栄町二丁目118,一階角部屋自殺,2018年夏ごろ,東京都 羽村市 栄町 二丁目,35.77118682861328,139.30992126464844,1층 각방 자살
727,羽村市,東京都羽村市緑ヶ丘五丁目150,駐車スペース横の部屋で住民男性が首吊り自殺,2005,東京都 羽村市 緑ヶ丘 五丁目,35.76666259765625,139.3121795654297,주차 공간 옆방에서 주민 남자가 목살 자살한
728,羽村市,東京都羽村市羽中一丁目337,告知事項,不明,東京都 羽村市 羽中 一丁目,35.76478576660156,139.31005859375,공고사항
729,武蔵村山市,東京都武蔵村山市本町三丁目605,御爺さん老衰し、その後御婆さん転居し転売される。,平成１２年頃,東京都 武蔵村山市 本町 三丁目,35.759273529052734,139.3837890625,"할아버지, 노쇠하고, 그 후 할머니가 전세로 전세로 전세로 가게 된다."
730,武蔵村山市,東京都武蔵村山市中央一丁目243ハウスオブブーケA 1階,死体発見,平成24年,東京都 武蔵村山市 中央 一丁目,35.752628326416016,139.39044189453125,시체 발견
731,昭島市,東京都昭島市緑町一丁目8,家主が駐車場の車の中で服薬自殺,約10年前,東京都 昭島市 緑町 一丁目 8番,35.709930419921875,139.35189819335938,집주인이 주차장 차 안에서 복약 자살
732,昭島市,東京都昭島市緑町一丁目9,"老婆と長女（60代）が暮らしていたが、
生活が困窮していて、長女が餓死したらしい、
老婆は生きていた。",20191227,東京都 昭島市 緑町 一丁目 9番,35.709476470947266,139.35292053222656,노파와 장녀가 살았지만 생활이 어려워 장녀가 굶어 죽고 있다고 노파는 살아 있었다.
733,昭島市,東京都昭島市田中町一丁目349,火災による死亡,令和2年9月7日,東京都 昭島市 田中町 一丁目,35.70683288574219,139.3528594970703,화재로 인한 사망
734,福生市,東京都福生市大字福生6931 エアーシリウス,"5階 角部屋 南西向き2LDK（洋室56帖、洋室54帖、LDK142帖） 専有面積5538㎡
心理的瑕疵有り
定期借家（2年）
リノベーション物件 、リフォーム物件",令和4年5月14日,東京都 福生市 大字福生,35.7410774230957,139.32147216796875,"5층짜리 방이동 남향 2DK는 양동옥 56편, 양동"
735,福生市,東京都福生市志茂2432 ＴＯＰ福生第２ 4階,心理的瑕疵有り,不明,東京都 福生市 志茂,35.73667526245117,139.3301544189453,심리적 하자 있음
736,福生市,東京都福生市本町803,"無職の男性26方から出火し、部屋を半焼。男性は全身やけどなどで死亡した。
5階建てマンション「山本第一コーポ」5階503号室

1987年築
RC造
ＪＲ中央線福生駅 徒歩7分",平成16年3月14日,東京都 福生市 本町,35.739898681640625,139.3283233642578,무직인 남성 26곳에서 불을 밝혀 방을 전소했다.남성은 전신 화상.인
737,福生市,東京都福生市北田園一丁目121,孤高死 腐乱死体の噂あり,2015～2016頃,東京都 福生市 北田園 一丁目,35.73295211791992,139.32470703125,고비고사부난사체포
743,西東京市,東京都西東京市東伏見四丁目824ラ・フローラ武蔵野6,401号室 自殺,7月20日,東京都 西東京市 東伏見 四丁目,35.72285842895508,139.56304931640625,401호실 자살
744,西東京市,東京都西東京市東伏見五丁目45,飛び降り自殺,令和5年1月,東京都 西東京市 東伏見 五丁目,35.7232780456543,139.55906677246094,뛰어내리 자살
745,西東京市,東京都西東京市東伏見五丁目41,"パレホームズ607
※告知事項あり
不動産情報サイトからの情報",2020年12月,東京都 西東京市 東伏見 五丁目,35.7232780456543,139.55906677246094,파래홈즈607(공지사항있음)부동산정보사이트로부터의 정보
746,練馬区,東京都練馬区関町北三丁目45 アイル関町 2階,"心理的瑕疵物件
不動産情報に記載",時期不明,東京都 練馬区 関町 北三丁目 45番,35.72745513916016,139.56764221191406,심리적 하자 금전 부동산 정보에 기재
747,練馬区,東京都練馬区関町北三丁目48エルヴィエントアース武蔵関公園803,自殺,平成22年5月,東京都 練馬区 関町 北三丁目 48番,35.72745895385742,139.5668487548828,자살
748,武蔵野市,東京都武蔵野市緑町二丁目64,"都営武蔵野アパート敷地内
30歳代くらいの男性遺体発見
死因は全身打撲による外傷性ショック死",平成17年12月28日,東京都 武蔵野市 緑町 二丁目,35.71677017211914,139.562744140625,도영구 무라타미 아파트 부지 내 30대 정도의 남성 시신 발견사
749,武蔵野市,東京都武蔵野市緑町二丁目34都営武蔵野緑町二丁目第2アパート4号棟,"【青酸カリによる死者が出たそうです】
4号棟の自治会役員の方の証言で、団地内で青酸カリによる死者が出たそうです。武蔵野警察署の刑事に確認したところ、団地の自治会の意向で事故扱いで処理されたということです。",不明,東京都 武蔵野市 緑町 二丁目,35.71677017211914,139.562744140625,[청산칼로리] 4호동의 시아버지인 분의 증언으로 단지 지구
750,武蔵野市,東京都武蔵野市緑町二丁目64 都営武蔵野緑町2丁目第3アパート4号棟,死体発見,平成17年12月28日,東京都 武蔵野市 緑町 二丁目,35.71677017211914,139.562744140625,시체 발견
751,武蔵野市,東京都武蔵野市西久保三丁目128 アネシスヴィーゼ205号室,告知事項あり,不明,東京都 武蔵野市 西久保 三丁目,35.71162414550781,139.56007385253906,공고사항
752,武蔵野市,東京都武蔵野市西久保三丁目1118,不審死,2022年11月,東京都 武蔵野市 西久保 三丁目,35.71162414550781,139.56007385253906,불시살
753,武蔵野市,東京都武蔵野市西久保三丁目75都築荘101,死体発見,平成28年2月23日,東京都 武蔵野市 西久保 三丁目,35.71162414550781,139.56007385253906,시체 발견
754,葛飾区,東京都葛飾区西水元四丁目8-13,老婆がお風呂場で死亡,24年,東京都 葛飾区 西水元 四丁目 8番 13号,35.79479217529297,139.8480682373047,노파가 욕실에서 사망
755,葛飾区,埼玉県八潮市大瀬1654,火災による死亡,平成30年2月14日,埼玉県 八潮市 大字大瀬 1654番地,35.794132232666016,139.85643005371094,화재로 인한 사망
756,葛飾区,埼玉県三郷市高州二丁目21-1,火災による死亡,平成24年1月9日,埼玉県 三郷市 高州 二丁目 21番地,35.792266845703125,139.87818908691406,화재로 인한 사망
757,葛飾区,埼玉県三郷市高州一丁目348-1,火災による死亡,令和3年11月21日,埼玉県 三郷市 高州 一丁目 348番地,35.7951774597168,139.88099670410156,화재로 인한 사망
758,葛飾区,埼玉県三郷市鷹野一丁目255,部屋番号は記載しないが自殺あり,2023年,埼玉県 三郷市 鷹野 一丁目 255番地,35.79844665527344,139.88563537597656,방 번호는 기재하지 않지만 자살
759,葛飾区,埼玉県三郷市高州二丁目390-1グローリー高州313,火災による死亡,平成26年1月31日,埼玉県 三郷市 高州 二丁目 390番地,35.787841796875,139.8830108642578,화재로 인한 사망
760,葛飾区,東京都葛飾区水元四丁目11-12,死体発見,平成27年3月31日,東京都 葛飾区 水元 四丁目 11番 12号,35.78574752807617,139.8623809814453,시체 발견
761,葛飾区,埼玉県三郷市高州四丁目82メゾンサファイア1階,火災による死亡,平成24年12月26日,埼玉県 三郷市 高州 四丁目 82番地,35.78427505493164,139.8848419189453,화재로 인한 사망
762,葛飾区,東京都葛飾区東金町五丁目51-11,２Ｆ部屋番不明 自殺,平成24年12月7日,東京都 葛飾区 東金町 五丁目 51番 11号,35.77800750732422,139.88211059570312,방역수칙 위반자살
763,葛飾区,千葉県松戸市松戸1149,屋上から飛び降り自殺。一階外の花屋の前が事故現場,10年以上前だと思う,千葉県 松戸市 松戸 1149番地,35.782894134521484,139.90249633789062,옥상에서 뛰어내리고 자살. 일층 외 꽃집 앞이 사고 현장
764,葛飾区,千葉県松戸市根本466-3,買春男性死亡事件(ホテルチェックインの6階),2019年,千葉県 松戸市 根本 466番地,35.78537368774414,139.9024200439453,월남 남성 사망사건(호텔 체크인 6층)
765,葛飾区,千葉県松戸市本町20-1,"20代男性の腐乱遺体発見。屋上から転落の後、発見されるまでに数週間を要した。
1階、サーティーワンアイスクリーム松戸店の裏側。
http://blog.livedoor.jp/mma_music_andmore/archives/50919619.html",平成19年5月18日,千葉県 松戸市 本町 20番,35.785240173339844,139.90017700195312,20대 남성의 부패사체 발견. 옥상에서 떨어진 뒤 발견된 지 몇 주나 됐
766,葛飾区,千葉県松戸市松戸1315-4,屋上から男性が飛び降り自殺。一階広場に居た女性の目の前に落下。以降は飛び降りは発生していないが以前は度々飛び降りが発生している。,8年前くらい,千葉県 松戸市 松戸 1315番地,35.78193283081055,139.89813232421875,옥상에서 남자가 뛰어내려 자살. 1층 광장에 있던 여성의 눈앞에 떨어짐. 이후로는 낙하산은
767,葛飾区,千葉県松戸市松戸1859-1,首吊り自殺,平成29年1月31日,千葉県 松戸市 松戸 1859番地,35.78321838378906,139.89662170410156,목살 자살
768,葛飾区,千葉県松戸市松戸2094-10,孤高死,2022年7月1日,千葉県 松戸市 松戸 2094番地,35.784889221191406,139.89492797851562,고고사
769,葛飾区,千葉県松戸市本町12,立体駐車場に挟まれ男性死亡,平成24年6月30日,千葉県 松戸市 本町 12番,35.785484313964844,139.89755249023438,입체 주차장에 끼여 남성 사망
770,葛飾区,千葉県松戸市松戸2082-2 ベルドミール松戸,"1階 角部屋 南向きワンルーム（洋室8帖） 専有面積19.5㎡ 賃料4.3万円
告知事項あり",令和4年9月18日,千葉県 松戸市 松戸 2082番地,35.784889221191406,139.89492797851562,1층 각 방 중앙 원룸(양로당 8종) 전용면적 19.5m2
771,葛飾区,千葉県松戸市松戸1853-2,11階元所有者自殺、2階容認事項あり,2023年年始,千葉県 松戸市 松戸 1853番地,35.78350830078125,139.89785766601562,"11층 전 소유자 자살, 2층 용인에 관한 사항"
772,葛飾区,千葉県松戸市松戸1135-4,suumoにて告知事故有との記載あり,2022年,千葉県 松戸市 松戸 1135番地,35.782894134521484,139.90249633789062,summo에 공지사항 없음
773,葛飾区,千葉県松戸市松戸1081,練炭自殺,2014年,千葉県 松戸市 松戸 1081番地,35.77903366088867,139.9019012451172,연탄 자살
774,葛飾区,千葉県松戸市松戸1554-4,1階正面側にある部屋。浴槽で溺死,平成29年5月1日,千葉県 松戸市 松戸 1554番地,35.77690887451172,139.89720153808594,1층 정문쪽에 있는 방. 욕조에서 익사
775,葛飾区,千葉県松戸市小山33,成人男性が首吊り自殺,3、4年程前？,千葉県 松戸市 小山 33番地,35.777496337890625,139.895751953125,성인 남성이 목졸라 자살
776,葛飾区,千葉県松戸市松戸1649-1ウィンベルデュエット松戸No.9 204,刺殺,平成21年10月22日,千葉県 松戸市 松戸 1649番地,35.77428436279297,139.89866638183594,사시미
777,葛飾区,千葉県松戸市松戸1595-9,心理的瑕疵あり,不明,千葉県 松戸市 松戸 1595番地,35.774593353271484,139.89881896972656,심리적 하자 있음
778,葛飾区,東京都葛飾区東金町三丁目19-2,3階 告知事項有り,---,東京都 葛飾区 東金町 三丁目 19番 2号,35.77103042602539,139.87254333496094,3층 공고사항 있음
779,葛飾区,東京都葛飾区金町六丁目7-8 ユタカキャピタル金町,"6階 南向き2LDK（LDK13.1帖、洋室5.6帖、洋室4.2帖） 専有面積55.44㎡ バルコニー面積7.11㎡ 価格2,798万円 管理費等10,800円 修繕積立金7,870円
告知事項有
2022年10月中旬リフォーム完了予定",令和4年8月6日,東京都 葛飾区 金町 六丁目 7番 8号,35.76836013793945,139.87232971191406,"6층 남향의 2LDK=LDK 13.1칸, 양로당"
780,葛飾区,東京都葛飾区金町三丁目46-9,火災による死亡,平成29年11月17日,東京都 葛飾区 金町 三丁目 46番 9号,35.76791000366211,139.87750244140625,화재로 인한 사망
781,葛飾区,東京都葛飾区金町三丁目24-7,火災による死亡,平成28年9月25日,東京都 葛飾区 金町 三丁目 24番 7号,35.76580810546875,139.87498474121094,화재로 인한 사망
782,葛飾区,東京都葛飾区金町三丁目25-7 グリーンハイツ,"2階 角部屋
告知事項有
定期借家物件",令和4年5月3日,東京都 葛飾区 金町 三丁目 25番 7号,35.76519775390625,139.8755645751953,2층 각방고시사항유정기간주택건물
783,葛飾区,千葉県松戸市栗山121-24. 102号室,告知事項有り,平成28年5月,千葉県 松戸市 栗山 121番地,35.75651931762695,139.89869689941406,공고사항 있음
784,葛飾区,千葉県松戸市栗山158-3,心理的瑕疵,2020年秋ごろ,千葉県 松戸市 栗山 158番地,35.75712966918945,139.8952178955078,심리적 하자
785,葛飾区,千葉県松戸市栗山171-3,"こたつから住人の男性(22)のミイラ化した遺体を発見
(死後数ヶ月経過)
木造2階建てアパート「サニーハイツ宮本」1階102号室",平成21年4月4日,千葉県 松戸市 栗山 171番地,35.75712966918945,139.8952178955078,코타츠카에서 거주하는 남성(22)의 미라화된 시신을 발견(사후
786,葛飾区,東京都江戸川区北小岩八丁目3,独居老人、風呂場で死亡,令和2年9月15日,東京都 江戸川区 北小岩 八丁目 3番,35.74897003173828,139.88160705566406,"독거 노인, 목욕탕에서 사망"
787,葛飾区,東京都葛飾区鎌倉三丁目28-17,死体遺棄,平成26年7月22日,東京都 葛飾区 鎌倉 三丁目 28番 17号,35.749977111816406,139.87904357910156,시체유채
788,葛飾区,東京都江戸川区北小岩八丁目5-18,"ピタアタ北小岩2F（部屋番号不明）
心理的瑕疵物件あり",不明,東京都 江戸川区 北小岩 八丁目 5番 18号,35.74750518798828,139.8831329345703,비타아타 북코 2F(방 번호 불명) 심리불안 물품
789,葛飾区,東京都江戸川区北小岩八丁目30-11,ミイラ,平成19年9月1日,東京都 江戸川区 北小岩 八丁目 30番 11号,35.74762344360352,139.88865661621094,미라
790,葛飾区,東京都江戸川区北小岩六丁目53-10,"メゾンドゥヴァンテアン1F（部屋番号不明）
心理的瑕疵物件あり",不明,東京都 江戸川区 北小岩 六丁目 53番 10号,35.74599075317383,139.88853454589844,메종드반테랑1F(방번호불명)심적해물
791,葛飾区,東京都江戸川区北小岩六丁目4,"硫化水素自殺
今は新しい家が建っている",2012年頃,東京都 江戸川区 北小岩 六丁目 4番,35.74433135986328,139.88250732421875,유황수소 자살 지금은 새 집이 세워져 있다.
792,葛飾区,東京都葛飾区鎌倉三丁目54-3 かたばみ荘,2階2号室 年齢63歳（自称）男性の死体発見,平成22年7月18日,東京都 葛飾区 鎌倉 三丁目 54番 3号,35.74554443359375,139.88050842285156,2층 2호실 연 63세 (자칭) 남성의 시신 발견
793,葛飾区,東京都葛飾区鎌倉四丁目29-12 鎌倉ハイツB,"2階 角部屋 南向き1DK（洋室6帖、DK4.5帖） 専有面積24.84㎡
賃料5万円
心理的瑕疵あり
新規リフォーム中（入居時期2022年8月中旬）
